query,latitude,longitude,display_name,geocode_status
"HMP Fosse Way, 1 Tigers Road, Wigston, Leicestershire, LE18 4TN, United Kingdom",52.5845722,-1.1452853,"HMP Fosse Way, 1, Tigers Road, Glen Parva, Wigston, Blaby, Leicestershire, England, LE18 4TN, United Kingdom",ok
"1 ORCHARD CLOSE DONISTHORPE SWADLINCOTE, DE12 7FN, United Kingdom",,,"",no_result
"2 ORCHARD CLOSE DONISTHORPE SWADLINCOTE, DE12 7FN, United Kingdom",,,"",no_result
"3 ORCHARD CLOSE DONISTHORPE SWADLINCOTE, DE12 7FN, United Kingdom",,,"",no_result
"27 ASHBY ROAD BREEDON ON THE HILL DERBY, DE73 8AZ, United Kingdom",,,"",no_result
"108 LEOPOLD STREET LOUGHBOROUGH, LE11 5DW, United Kingdom",52.7745076,-1.215888,"Leopold Street, Thorpe Acre, Loughborough, Charnwood, Leicestershire, England, LE11 5DP, United Kingdom",ok
"15 LOWER CHURCH STREET ASHBY-DE-LA-ZOUCH, LE65 1AB, United Kingdom",52.7476876,-1.4681134,"Lower Church Street, Ashby-de-la-Zouch, North West Leicestershire, Leicestershire, England, LE65 1AB, United Kingdom",ok
"THE COACH HOUSE LOWER CHURCH STREET ASHBY-DE-LA-ZOUCH, LE65 1AB, United Kingdom",,,"",no_result
"3 PRIOR PARK ROAD ASHBY-DE-LA-ZOUCH, LE65 1BJ, United Kingdom",52.745721,-1.4695982,"Prior Park Road, Ashby-de-la-Zouch, North West Leicestershire, Leicestershire, England, LE65 1BJ, United Kingdom",ok
"3 LOUDOUN COURT SOUTH STREET ASHBY-DE-LA-ZOUCH, LE65 1BQ, United Kingdom",,,"",no_result
"4 LOUDOUN COURT SOUTH STREET ASHBY-DE-LA-ZOUCH, LE65 1BQ, United Kingdom",,,"",no_result
"9 UPPER CHURCH STREET ASHBY-DE-LA-ZOUCH, LE65 1BX, United Kingdom",52.7481029,-1.4661651,"Upper Church Street, Ashby-de-la-Zouch, North West Leicestershire, Leicestershire, England, LE65 1EJ, United Kingdom",ok
"3 NOTTINGHAM ROAD ASHBY-DE-LA-ZOUCH, LE65 1DJ, United Kingdom",52.7504992,-1.459507,"Nottingham Road, Ashby-de-la-Zouch, North West Leicestershire, Leicestershire, England, LE65 1DN, United Kingdom",ok
"2 PRIORFIELDS ASHBY-DE-LA-ZOUCH, LE65 1EA, United Kingdom",52.7441273,-1.4621559,"Priorfields, Ashby-de-la-Zouch, North West Leicestershire, Leicestershire, England, LE65 1EA, United Kingdom",ok
"40 UPPER PACKINGTON ROAD ASHBY-DE-LA-ZOUCH, LE65 1EF, United Kingdom",52.7428252,-1.464689,"Upper Packington Road, Ashby-de-la-Zouch, North West Leicestershire, Leicestershire, England, LE65 1EF, United Kingdom",ok
"10 WOOD STREET ASHBY-DE-LA-ZOUCH, LE65 1EG, United Kingdom",52.7483208,-1.4674088,"8,10,14, Wood Street, Ashby-de-la-Zouch, North West Leicestershire, Leicestershire, England, LE65 1AB, United Kingdom",ok
"43 WOOD STREET ASHBY-DE-LA-ZOUCH, LE65 1EL, United Kingdom",52.7488262,-1.4657812,"Wood Street, Ashby-de-la-Zouch, North West Leicestershire, Leicestershire, England, LE65 1EL, United Kingdom",ok
"69 PENNINE WAY ASHBY-DE-LA-ZOUCH, LE65 1EZ, United Kingdom",52.7403934,-1.4684763,"Pennine Way, Ashby-de-la-Zouch, North West Leicestershire, Leicestershire, England, LE65 1EW, United Kingdom",ok
"18 CONISTON GARDENS ASHBY-DE-LA-ZOUCH, LE65 1FB, United Kingdom",52.7416991,-1.4611185,"Coniston Gardens, Ashby-de-la-Zouch, North West Leicestershire, Leicestershire, England, LE65 1FB, United Kingdom",ok
"7 ENNERDALE GARDENS ASHBY-DE-LA-ZOUCH, LE65 1FD, United Kingdom",52.74174,-1.4605815,"Ennerdale Gardens, Ashby-de-la-Zouch, North West Leicestershire, Leicestershire, England, LE65 1FD, United Kingdom",ok
"21 ULLESWATER CRESCENT ASHBY-DE-LA-ZOUCH, LE65 1FH, United Kingdom",52.739631,-1.4621068,"Ulleswater Crescent, Ashby-de-la-Zouch, North West Leicestershire, Leicestershire, England, LE65 1FH, United Kingdom",ok
"17 RYDAL GARDENS ASHBY-DE-LA-ZOUCH, LE65 1FJ, United Kingdom",52.7400607,-1.4646203,"Rydal Gardens, Ashby-de-la-Zouch, North West Leicestershire, Leicestershire, England, LE65 1FJ, United Kingdom",ok
"9 BIRCH ROAD ASHBY-DE-LA-ZOUCH, LE65 1FW, United Kingdom",52.7507302,-1.4555046,"Birch Road, Ashby-de-la-Zouch, North West Leicestershire, Leicestershire, England, LE65 1FW, United Kingdom",ok
"100 OAK CRESCENT ASHBY-DE-LA-ZOUCH, LE65 1FX, United Kingdom",52.7505436,-1.4566102,"Oak Crescent, Ashby-de-la-Zouch, North West Leicestershire, Leicestershire, England, LE65 1FX, United Kingdom",ok
"108 OAK CRESCENT ASHBY-DE-LA-ZOUCH, LE65 1FX, United Kingdom",52.7505436,-1.4566102,"Oak Crescent, Ashby-de-la-Zouch, North West Leicestershire, Leicestershire, England, LE65 1FX, United Kingdom",ok
"15 OAK CRESCENT ASHBY-DE-LA-ZOUCH, LE65 1FX, United Kingdom",52.7505436,-1.4566102,"Oak Crescent, Ashby-de-la-Zouch, North West Leicestershire, Leicestershire, England, LE65 1FX, United Kingdom",ok
"26 OAK CRESCENT ASHBY-DE-LA-ZOUCH, LE65 1FX, United Kingdom",52.7505436,-1.4566102,"Oak Crescent, Ashby-de-la-Zouch, North West Leicestershire, Leicestershire, England, LE65 1FX, United Kingdom",ok
"72 OAK CRESCENT ASHBY-DE-LA-ZOUCH, LE65 1FX, United Kingdom",52.7505436,-1.4566102,"Oak Crescent, Ashby-de-la-Zouch, North West Leicestershire, Leicestershire, England, LE65 1FX, United Kingdom",ok
"84 OAK CRESCENT ASHBY-DE-LA-ZOUCH, LE65 1FX, United Kingdom",52.7505436,-1.4566102,"Oak Crescent, Ashby-de-la-Zouch, North West Leicestershire, Leicestershire, England, LE65 1FX, United Kingdom",ok
"22 LOWER PACKINGTON ROAD ASHBY-DE-LA-ZOUCH, LE65 1GD, United Kingdom",52.7415886,-1.4745399,"Lower Packington Road, Ashby-de-la-Zouch, North West Leicestershire, Leicestershire, England, LE65 1GD, United Kingdom",ok
"19 LOWER PACKINGTON ROAD ASHBY-DE-LA-ZOUCH, LE65 1GH, United Kingdom",52.7415886,-1.4745399,"Lower Packington Road, Ashby-de-la-Zouch, North West Leicestershire, Leicestershire, England, LE65 1GD, United Kingdom",ok
"11 SCOTT CLOSE ASHBY-DE-LA-ZOUCH, LE65 1HT, United Kingdom",,,"",no_result
"3 ALLISON CLOSE ASHBY-DE-LA-ZOUCH, LE65 1JZ, United Kingdom",52.7546101,-1.4702872,"Allison Close, Ashby-de-la-Zouch, North West Leicestershire, Leicestershire, England, LE65 1JZ, United Kingdom",ok
"5 BOSWORTH CLOSE ASHBY-DE-LA-ZOUCH, LE65 1LB, United Kingdom",52.7512413,-1.4603878,"Bosworth Close, Ashby-de-la-Zouch, North West Leicestershire, Leicestershire, England, LE65 1LB, United Kingdom",ok
"11 KING RICHARD WAY ASHBY-DE-LA-ZOUCH, LE65 1LD, United Kingdom",52.751954,-1.4592489,"King Richard Way, Ashby-de-la-Zouch, North West Leicestershire, Leicestershire, England, LE65 1LD, United Kingdom",ok
"5 CROMWELL CLOSE ASHBY-DE-LA-ZOUCH, LE65 1LU, United Kingdom",52.7519746,-1.4579297,"Cromwell Close, Ashby-de-la-Zouch, North West Leicestershire, Leicestershire, England, LE65 1LU, United Kingdom",ok
"3 FEATHERBED LANE ASHBY-DE-LA-ZOUCH, LE65 1LX, United Kingdom",52.7511175,-1.4585542,"3, Featherbed Lane, Ashby-de-la-Zouch, North West Leicestershire, Leicestershire, England, LE65 1LX, United Kingdom",ok
"15 ASTLEY WAY ASHBY-DE-LA-ZOUCH, LE65 1LY, United Kingdom",52.751941,-1.4568769,"Astley Way, Ashby-de-la-Zouch, North West Leicestershire, Leicestershire, England, LE65 1LH, United Kingdom",ok
"17 FAIRFAX CLOSE ASHBY-DE-LA-ZOUCH, LE65 1LZ, United Kingdom",52.7513412,-1.4593331,"Fairfax Close, Ashby-de-la-Zouch, North West Leicestershire, Leicestershire, England, LE65 1LZ, United Kingdom",ok
"5 LODGE CLOSE ASHBY-DE-LA-ZOUCH, LE65 1SJ, United Kingdom",52.7423525,-1.4792994,"Lodge Close, Ashby-de-la-Zouch, North West Leicestershire, Leicestershire, England, LE65 1SJ, United Kingdom",ok
"4 SYCAMORE DRIVE ASHBY-DE-LA-ZOUCH, LE65 1SP, United Kingdom",52.749496,-1.4594152,"Sycamore Drive, Ashby-de-la-Zouch, North West Leicestershire, Leicestershire, England, LE65 2SR, United Kingdom",ok
"10 WINDSOR ROAD ASHBY-DE-LA-ZOUCH, LE65 1TW, United Kingdom",52.7414905,-1.4717258,"Windsor Road, Ashby-de-la-Zouch, North West Leicestershire, Leicestershire, England, LE65 1TW, United Kingdom",ok
"14 WINDSOR ROAD ASHBY-DE-LA-ZOUCH, LE65 1TW, United Kingdom",52.7414905,-1.4717258,"Windsor Road, Ashby-de-la-Zouch, North West Leicestershire, Leicestershire, England, LE65 1TW, United Kingdom",ok
"11 STUART WAY ASHBY-DE-LA-ZOUCH, LE65 1US, United Kingdom",52.7419563,-1.4727159,"Stuart Way, Ashby-de-la-Zouch, North West Leicestershire, Leicestershire, England, LE65 1US, United Kingdom",ok
"7 WARWICK WAY ASHBY-DE-LA-ZOUCH, LE65 1YZ, United Kingdom",52.7434923,-1.4670168,"Warwick Way, Ashby-de-la-Zouch, North West Leicestershire, Leicestershire, England, LE65 1WY, United Kingdom",ok
"30 DAIRY LANE ASHBY-DE-LA-ZOUCH, LE65 2AW, United Kingdom",52.7570598,-1.4749971,"Dairy Lane, Ashby-de-la-Zouch, North West Leicestershire, Leicestershire, England, LE65 2AW, United Kingdom",ok
"22 WHEATLEY CLOSE ASHBY-DE-LA-ZOUCH, LE65 2AY, United Kingdom",52.7578371,-1.4749643,"Wheatley Close, Ashby-de-la-Zouch, North West Leicestershire, Leicestershire, England, LE65 2AY, United Kingdom",ok
"24 WHEATLEY CLOSE ASHBY-DE-LA-ZOUCH, LE65 2AY, United Kingdom",52.7578371,-1.4749643,"Wheatley Close, Ashby-de-la-Zouch, North West Leicestershire, Leicestershire, England, LE65 2AY, United Kingdom",ok
"26 WHEATLEY CLOSE ASHBY-DE-LA-ZOUCH, LE65 2AY, United Kingdom",52.7578371,-1.4749643,"Wheatley Close, Ashby-de-la-Zouch, North West Leicestershire, Leicestershire, England, LE65 2AY, United Kingdom",ok
"28 WHEATLEY CLOSE ASHBY-DE-LA-ZOUCH, LE65 2AY, United Kingdom",52.7578371,-1.4749643,"Wheatley Close, Ashby-de-la-Zouch, North West Leicestershire, Leicestershire, England, LE65 2AY, United Kingdom",ok
"35 AVENUE ROAD ASHBY-DE-LA-ZOUCH, LE65 2FA, United Kingdom",52.7408685,-1.4762463,"35, Avenue Road, Ashby-de-la-Zouch, North West Leicestershire, Leicestershire, England, LE65 2FA, United Kingdom",ok
"18 AVENUE ROAD ASHBY-DE-LA-ZOUCH, LE65 2FE, United Kingdom",,,"",no_result
"64 HIGHFIELDS CLOSE ASHBY-DE-LA-ZOUCH, LE65 2FN, United Kingdom",52.7468947,-1.4838746,"64, Highfields Close, Shellbrook, Ashby-de-la-Zouch, North West Leicestershire, Leicestershire, England, LE65 2FN, United Kingdom",ok
"21 HIGHFIELDS CLOSE ASHBY-DE-LA-ZOUCH, LE65 2FP, United Kingdom",52.7471829,-1.481855,"21, Highfields Close, Shellbrook, Ashby-de-la-Zouch, North West Leicestershire, Leicestershire, England, LE65 2FP, United Kingdom",ok
"15 KILWARDBY STREET ASHBY-DE-LA-ZOUCH, LE65 2FR, United Kingdom",52.7458331,-1.4781594,"15, Kilwardby Street, Ashby-de-la-Zouch, North West Leicestershire, Leicestershire, England, LE65 2FR, United Kingdom",ok
"3 KIRKLAND CLOSE ASHBY-DE-LA-ZOUCH, LE65 2FT, United Kingdom",52.7459278,-1.475127,"Kirkland Close, Ashby-de-la-Zouch, North West Leicestershire, Leicestershire, England, LE65 2FT, United Kingdom",ok
"4 KIRKLAND CLOSE ASHBY-DE-LA-ZOUCH, LE65 2FT, United Kingdom",52.7459278,-1.475127,"Kirkland Close, Ashby-de-la-Zouch, North West Leicestershire, Leicestershire, England, LE65 2FT, United Kingdom",ok
"25 ROYAL MEWS STATION ROAD ASHBY-DE-LA-ZOUCH, LE65 2GJ, United Kingdom",,,"",no_result
"18 TRINITY CLOSE ASHBY-DE-LA-ZOUCH, LE65 2GR, United Kingdom",52.7449359,-1.4755352,"18, Trinity Close, Ashby-de-la-Zouch, North West Leicestershire, Leicestershire, England, LE65 2GR, United Kingdom",ok
"43 TRINITY CLOSE ASHBY-DE-LA-ZOUCH, LE65 2GS, United Kingdom",52.7446216,-1.4798859,"43, Trinity Close, Ashby-de-la-Zouch, North West Leicestershire, Leicestershire, England, LE65 2GS, United Kingdom",ok
"CRAMBLE COTTAGE WILFRED GARDENS ASHBY-DE-LA-ZOUCH, LE65 2GX, United Kingdom",,,"",no_result
"17 HOLYWELL AVENUE ASHBY-DE-LA-ZOUCH, LE65 2HL, United Kingdom",52.752824,-1.4745172,"Holywell Avenue, Ashby-de-la-Zouch, North West Leicestershire, Leicestershire, England, LE65 2HL, United Kingdom",ok
"12 HACKETT CLOSE ASHBY-DE-LA-ZOUCH, LE65 2HP, United Kingdom",52.7495375,-1.4749267,"Hackett Close, Ashby-de-la-Zouch, North West Leicestershire, Leicestershire, England, LE65 2HP, United Kingdom",ok
"6 HACKETT CLOSE ASHBY-DE-LA-ZOUCH, LE65 2HP, United Kingdom",52.7495375,-1.4749267,"Hackett Close, Ashby-de-la-Zouch, North West Leicestershire, Leicestershire, England, LE65 2HP, United Kingdom",ok
"28 DREW COURT ASHBY-DE-LA-ZOUCH, LE65 2JA, United Kingdom",52.7510762,-1.4730883,"Drew Court, Ashby-de-la-Zouch, North West Leicestershire, Leicestershire, England, LE65 2JA, United Kingdom",ok
"32 DREW COURT ASHBY-DE-LA-ZOUCH, LE65 2JA, United Kingdom",52.7510762,-1.4730883,"Drew Court, Ashby-de-la-Zouch, North West Leicestershire, Leicestershire, England, LE65 2JA, United Kingdom",ok
"48 DREW COURT ASHBY-DE-LA-ZOUCH, LE65 2JA, United Kingdom",52.7510762,-1.4730883,"Drew Court, Ashby-de-la-Zouch, North West Leicestershire, Leicestershire, England, LE65 2JA, United Kingdom",ok
"74 DREW COURT ASHBY-DE-LA-ZOUCH, LE65 2JA, United Kingdom",52.7510762,-1.4730883,"Drew Court, Ashby-de-la-Zouch, North West Leicestershire, Leicestershire, England, LE65 2JA, United Kingdom",ok
"1 DREW COURT ASHBY-DE-LA-ZOUCH, LE65 2JB, United Kingdom",52.751177,-1.4725094,"Drew Court, Ashby-de-la-Zouch, North West Leicestershire, Leicestershire, England, LE65 2JB, United Kingdom",ok
"19 DREW COURT ASHBY-DE-LA-ZOUCH, LE65 2JB, United Kingdom",52.751177,-1.4725094,"Drew Court, Ashby-de-la-Zouch, North West Leicestershire, Leicestershire, England, LE65 2JB, United Kingdom",ok
"43 DREW COURT ASHBY-DE-LA-ZOUCH, LE65 2JB, United Kingdom",52.751177,-1.4725094,"Drew Court, Ashby-de-la-Zouch, North West Leicestershire, Leicestershire, England, LE65 2JB, United Kingdom",ok
"26 THE CALLIS ASHBY-DE-LA-ZOUCH, LE65 2JF, United Kingdom",52.7504202,-1.474415,"The Callis, Ashby-de-la-Zouch, North West Leicestershire, Leicestershire, England, LE65 2JF, United Kingdom",ok
"31 THE CALLIS ASHBY-DE-LA-ZOUCH, LE65 2JG, United Kingdom",52.7492917,-1.4745471,"31, The Callis, Ashby-de-la-Zouch, North West Leicestershire, Leicestershire, England, LE65 2HF, United Kingdom",ok
"2 SMISBY ROAD ASHBY-DE-LA-ZOUCH, LE65 2JL, United Kingdom",52.7549533,-1.4750032,"Smisby Road, Ashby-de-la-Zouch, North West Leicestershire, Leicestershire, England, LE65 2JN, United Kingdom",ok
"4 SMISBY ROAD ASHBY-DE-LA-ZOUCH, LE65 2JL, United Kingdom",52.7549533,-1.4750032,"Smisby Road, Ashby-de-la-Zouch, North West Leicestershire, Leicestershire, England, LE65 2JN, United Kingdom",ok
"90 SMISBY ROAD ASHBY-DE-LA-ZOUCH, LE65 2JL, United Kingdom",52.7549533,-1.4750032,"Smisby Road, Ashby-de-la-Zouch, North West Leicestershire, Leicestershire, England, LE65 2JN, United Kingdom",ok
"114 SMISBY ROAD ASHBY-DE-LA-ZOUCH, LE65 2JN, United Kingdom",52.7549533,-1.4750032,"Smisby Road, Ashby-de-la-Zouch, North West Leicestershire, Leicestershire, England, LE65 2JN, United Kingdom",ok
"94 SMISBY ROAD ASHBY-DE-LA-ZOUCH, LE65 2JN, United Kingdom",52.7549533,-1.4750032,"Smisby Road, Ashby-de-la-Zouch, North West Leicestershire, Leicestershire, England, LE65 2JN, United Kingdom",ok
"18 SAXON WAY ASHBY-DE-LA-ZOUCH, LE65 2JR, United Kingdom",52.7501608,-1.4817875,"18, Saxon Way, Ashby-de-la-Zouch, North West Leicestershire, Leicestershire, England, LE65 2JR, United Kingdom",ok
"12 MEREDITH ROAD ASHBY-DE-LA-ZOUCH, LE65 2JW, United Kingdom",52.752301,-1.4715325,"Meredith Road, Ashby-de-la-Zouch, North West Leicestershire, Leicestershire, England, LE65 2JW, United Kingdom",ok
"5 MALVERN CRESCENT ASHBY-DE-LA-ZOUCH, LE65 2JZ, United Kingdom",52.7550913,-1.4791431,"Malvern Crescent, Ashby-de-la-Zouch, North West Leicestershire, Leicestershire, England, LE65 2HB, United Kingdom",ok
"32 ATKINSON ROAD ASHBY-DE-LA-ZOUCH, LE65 2LA, United Kingdom",52.7506188,-1.4869673,"Atkinson Road, Shellbrook, Ashby-de-la-Zouch, North West Leicestershire, Leicestershire, England, LE65 2LZ, United Kingdom",ok
"6 ATKINSON ROAD ASHBY-DE-LA-ZOUCH, LE65 2LA, United Kingdom",52.7511083,-1.4869415,"1-6, Atkinson Road, Shellbrook, Ashby-de-la-Zouch, North West Leicestershire, Leicestershire, England, LE65 2LZ, United Kingdom",ok
"103 BURTON ROAD ASHBY-DE-LA-ZOUCH, LE65 2LG, United Kingdom",52.7485584,-1.4808503,"Burton Road, Shellbrook, Ashby-de-la-Zouch, North West Leicestershire, Leicestershire, England, LE65 2LG, United Kingdom",ok
"28 BURTON ROAD ASHBY-DE-LA-ZOUCH, LE65 2LL, United Kingdom",52.7480809,-1.4766096,"28, Burton Road, Shellbrook, Ashby-de-la-Zouch, North West Leicestershire, Leicestershire, England, LE65 2LL, United Kingdom",ok
"15 CHURCHILL CLOSE ASHBY-DE-LA-ZOUCH, LE65 2LR, United Kingdom",52.7476491,-1.4818092,"15, Churchill Close, Shellbrook, Ashby-de-la-Zouch, North West Leicestershire, Leicestershire, England, LE65 2LR, United Kingdom",ok
"36 CHURCHILL CLOSE ASHBY-DE-LA-ZOUCH, LE65 2LR, United Kingdom",52.7479208,-1.4830926,"36, Churchill Close, Ashby-de-la-Zouch, North West Leicestershire, Leicestershire, England, LE65 2LR, United Kingdom",ok
"7 CHURCHILL CLOSE ASHBY-DE-LA-ZOUCH, LE65 2LR, United Kingdom",52.7479036,-1.4815402,"7, Churchill Close, Shellbrook, Ashby-de-la-Zouch, North West Leicestershire, Leicestershire, England, LE65 2LR, United Kingdom",ok
"69 PRESTOP DRIVE ASHBY-DE-LA-ZOUCH, LE65 2NA, United Kingdom",52.7488787,-1.4871339,"69, Prestop Drive, Shellbrook, Ashby-de-la-Zouch, North West Leicestershire, Leicestershire, England, LE65 2NA, United Kingdom",ok
"11 BEAUMONT AVENUE ASHBY-DE-LA-ZOUCH, LE65 2NF, United Kingdom",52.7452151,-1.4852161,"11, Beaumont Avenue, Shellbrook, Ashby-de-la-Zouch, North West Leicestershire, Leicestershire, England, LE65 2NF, United Kingdom",ok
"29 BEAUMONT AVENUE ASHBY-DE-LA-ZOUCH, LE65 2NF, United Kingdom",52.7440453,-1.4837379,"29, Beaumont Avenue, Shellbrook, Ashby-de-la-Zouch, North West Leicestershire, Leicestershire, England, LE65 2NF, United Kingdom",ok
"21 WOODSIDE ASHBY-DE-LA-ZOUCH, LE65 2NJ, United Kingdom",52.7444807,-1.487548,"21, Woodside, Shellbrook, Ashby-de-la-Zouch, North West Leicestershire, Leicestershire, England, LE65 2NJ, United Kingdom",ok
"19 MARLBOROUGH WAY ASHBY-DE-LA-ZOUCH, LE65 2NN, United Kingdom",52.751919,-1.4774024,"Marlborough Way, Ashby-de-la-Zouch, North West Leicestershire, Leicestershire, England, LE65 2QR, United Kingdom",ok
"22 UPPINGHAM DRIVE ASHBY-DE-LA-ZOUCH, LE65 2NQ, United Kingdom",52.7515716,-1.480898,"Uppingham Drive, Ashby-de-la-Zouch, North West Leicestershire, Leicestershire, England, LE65 2NQ, United Kingdom",ok
"26 WINCHESTER WAY ASHBY-DE-LA-ZOUCH, LE65 2NR, United Kingdom",52.7506173,-1.4781872,"Winchester Way, Ashby-de-la-Zouch, North West Leicestershire, Leicestershire, England, LE65 2NR, United Kingdom",ok
"27 WINCHESTER WAY ASHBY-DE-LA-ZOUCH, LE65 2NR, United Kingdom",52.7506173,-1.4781872,"Winchester Way, Ashby-de-la-Zouch, North West Leicestershire, Leicestershire, England, LE65 2NR, United Kingdom",ok
"7 WINCHESTER WAY ASHBY-DE-LA-ZOUCH, LE65 2NR, United Kingdom",52.7506173,-1.4781872,"Winchester Way, Ashby-de-la-Zouch, North West Leicestershire, Leicestershire, England, LE65 2NR, United Kingdom",ok
"12 DONINGTON DRIVE ASHBY-DE-LA-ZOUCH, LE65 2NT, United Kingdom",52.7441439,-1.4832781,"12, Donington Drive, Ashby-de-la-Zouch, North West Leicestershire, Leicestershire, England, LE65 2NT, United Kingdom",ok
"15 DONINGTON DRIVE ASHBY-DE-LA-ZOUCH, LE65 2NT, United Kingdom",52.7442013,-1.4827722,"15, Donington Drive, Ashby-de-la-Zouch, North West Leicestershire, Leicestershire, England, LE65 2NT, United Kingdom",ok
"19 GRANGE CLOSE ASHBY-DE-LA-ZOUCH, LE65 2PQ, United Kingdom",52.7422342,-1.4801654,"Grange Close, Ashby-de-la-Zouch, North West Leicestershire, Leicestershire, England, LE65 2PQ, United Kingdom",ok
"42 TAMWORTH ROAD ASHBY-DE-LA-ZOUCH, LE65 2PR, United Kingdom",52.7418338,-1.4780254,"Tamworth Road, Ashby-de-la-Zouch, North West Leicestershire, Leicestershire, England, LE65 2PR, United Kingdom",ok
"44 TAMWORTH ROAD ASHBY-DE-LA-ZOUCH, LE65 2PR, United Kingdom",52.7418338,-1.4780254,"Tamworth Road, Ashby-de-la-Zouch, North West Leicestershire, Leicestershire, England, LE65 2PR, United Kingdom",ok
"62 TAMWORTH ROAD ASHBY-DE-LA-ZOUCH, LE65 2PT, United Kingdom",52.7422161,-1.4777415,"62, Tamworth Road, Ashby-de-la-Zouch, North West Leicestershire, Leicestershire, England, LE65 2PT, United Kingdom",ok
"33 TAMWORTH ROAD ASHBY-DE-LA-ZOUCH, LE65 2PW, United Kingdom",52.7418338,-1.4780254,"Tamworth Road, Ashby-de-la-Zouch, North West Leicestershire, Leicestershire, England, LE65 2PR, United Kingdom",ok
"6 WILLESLEY CLOSE ASHBY-DE-LA-ZOUCH, LE65 2QB, United Kingdom",52.7379312,-1.4861526,"Willesley Close, Ashby-de-la-Zouch, Willesley, North West Leicestershire, Leicestershire, England, LE65 2QB, United Kingdom",ok
"3 WELLS ROAD ASHBY-DE-LA-ZOUCH, LE65 2QD, United Kingdom",52.739977,-1.4837047,"3, Wells Road, Shellbrook, Ashby-de-la-Zouch, Willesley, North West Leicestershire, Leicestershire, England, LE65 2QD, United Kingdom",ok
"103 MARLBOROUGH WAY ASHBY-DE-LA-ZOUCH, LE65 2QH, United Kingdom",52.751919,-1.4774024,"Marlborough Way, Ashby-de-la-Zouch, North West Leicestershire, Leicestershire, England, LE65 2QR, United Kingdom",ok
"144 MARLBOROUGH WAY ASHBY-DE-LA-ZOUCH, LE65 2QH, United Kingdom",52.751919,-1.4774024,"Marlborough Way, Ashby-de-la-Zouch, North West Leicestershire, Leicestershire, England, LE65 2QR, United Kingdom",ok
"24 CLIFTON DRIVE ASHBY-DE-LA-ZOUCH, LE65 2QL, United Kingdom",52.7521463,-1.4797093,"Clifton Drive, Ashby-de-la-Zouch, North West Leicestershire, Leicestershire, England, LE65 2QL, United Kingdom",ok
"51 MARLBOROUGH WAY ASHBY-DE-LA-ZOUCH, LE65 2QR, United Kingdom",52.751919,-1.4774024,"Marlborough Way, Ashby-de-la-Zouch, North West Leicestershire, Leicestershire, England, LE65 2QR, United Kingdom",ok
"4 SHERBOURNE DRIVE ASHBY-DE-LA-ZOUCH, LE65 2QT, United Kingdom",52.7519025,-1.4764127,"Sherbourne Drive, Ashby-de-la-Zouch, North West Leicestershire, Leicestershire, England, LE65 2QT, United Kingdom",ok
"28 ROUEN WAY ASHBY-DE-LA-ZOUCH, LE65 2QX, United Kingdom",52.7488805,-1.4787514,"Rouen Way, Ashby-de-la-Zouch, North West Leicestershire, Leicestershire, England, LE65 2QX, United Kingdom",ok
"107 SPRING AVENUE ASHBY-DE-LA-ZOUCH, LE65 2RL, United Kingdom",52.7556104,-1.4853441,"Spring Avenue, Ashby-de-la-Zouch, North West Leicestershire, Leicestershire, England, LE65 2RQ, United Kingdom",ok
"109 SPRING AVENUE ASHBY-DE-LA-ZOUCH, LE65 2RL, United Kingdom",52.7556104,-1.4853441,"Spring Avenue, Ashby-de-la-Zouch, North West Leicestershire, Leicestershire, England, LE65 2RQ, United Kingdom",ok
"111 SPRING AVENUE ASHBY-DE-LA-ZOUCH, LE65 2RL, United Kingdom",52.7556104,-1.4853441,"Spring Avenue, Ashby-de-la-Zouch, North West Leicestershire, Leicestershire, England, LE65 2RQ, United Kingdom",ok
"113 SPRING AVENUE ASHBY-DE-LA-ZOUCH, LE65 2RL, United Kingdom",52.7556104,-1.4853441,"Spring Avenue, Ashby-de-la-Zouch, North West Leicestershire, Leicestershire, England, LE65 2RQ, United Kingdom",ok
"115 SPRING AVENUE ASHBY-DE-LA-ZOUCH, LE65 2RL, United Kingdom",52.7556104,-1.4853441,"Spring Avenue, Ashby-de-la-Zouch, North West Leicestershire, Leicestershire, England, LE65 2RQ, United Kingdom",ok
"117 SPRING AVENUE ASHBY-DE-LA-ZOUCH, LE65 2RL, United Kingdom",52.7556104,-1.4853441,"Spring Avenue, Ashby-de-la-Zouch, North West Leicestershire, Leicestershire, England, LE65 2RQ, United Kingdom",ok
"119 SPRING AVENUE ASHBY-DE-LA-ZOUCH, LE65 2RL, United Kingdom",52.7556104,-1.4853441,"Spring Avenue, Ashby-de-la-Zouch, North West Leicestershire, Leicestershire, England, LE65 2RQ, United Kingdom",ok
"121 SPRING AVENUE ASHBY-DE-LA-ZOUCH, LE65 2RL, United Kingdom",52.7556104,-1.4853441,"Spring Avenue, Ashby-de-la-Zouch, North West Leicestershire, Leicestershire, England, LE65 2RQ, United Kingdom",ok
"123 SPRING AVENUE ASHBY-DE-LA-ZOUCH, LE65 2RL, United Kingdom",52.7556104,-1.4853441,"Spring Avenue, Ashby-de-la-Zouch, North West Leicestershire, Leicestershire, England, LE65 2RQ, United Kingdom",ok
"125 SPRING AVENUE ASHBY-DE-LA-ZOUCH, LE65 2RL, United Kingdom",52.7556104,-1.4853441,"Spring Avenue, Ashby-de-la-Zouch, North West Leicestershire, Leicestershire, England, LE65 2RQ, United Kingdom",ok
"127 SPRING AVENUE ASHBY-DE-LA-ZOUCH, LE65 2RL, United Kingdom",52.7556104,-1.4853441,"Spring Avenue, Ashby-de-la-Zouch, North West Leicestershire, Leicestershire, England, LE65 2RQ, United Kingdom",ok
"129 SPRING AVENUE ASHBY-DE-LA-ZOUCH, LE65 2RL, United Kingdom",52.7556104,-1.4853441,"Spring Avenue, Ashby-de-la-Zouch, North West Leicestershire, Leicestershire, England, LE65 2RQ, United Kingdom",ok
"131 SPRING AVENUE ASHBY-DE-LA-ZOUCH, LE65 2RL, United Kingdom",52.7556104,-1.4853441,"Spring Avenue, Ashby-de-la-Zouch, North West Leicestershire, Leicestershire, England, LE65 2RQ, United Kingdom",ok
"133 SPRING AVENUE ASHBY-DE-LA-ZOUCH, LE65 2RL, United Kingdom",52.7556104,-1.4853441,"Spring Avenue, Ashby-de-la-Zouch, North West Leicestershire, Leicestershire, England, LE65 2RQ, United Kingdom",ok
"135 SPRING AVENUE ASHBY-DE-LA-ZOUCH, LE65 2RL, United Kingdom",52.7556104,-1.4853441,"Spring Avenue, Ashby-de-la-Zouch, North West Leicestershire, Leicestershire, England, LE65 2RQ, United Kingdom",ok
"137 SPRING AVENUE ASHBY-DE-LA-ZOUCH, LE65 2RL, United Kingdom",52.7556104,-1.4853441,"Spring Avenue, Ashby-de-la-Zouch, North West Leicestershire, Leicestershire, England, LE65 2RQ, United Kingdom",ok
"139 SPRING AVENUE ASHBY-DE-LA-ZOUCH, LE65 2RL, United Kingdom",52.7556104,-1.4853441,"Spring Avenue, Ashby-de-la-Zouch, North West Leicestershire, Leicestershire, England, LE65 2RQ, United Kingdom",ok
"141 SPRING AVENUE ASHBY-DE-LA-ZOUCH, LE65 2RL, United Kingdom",52.7556104,-1.4853441,"Spring Avenue, Ashby-de-la-Zouch, North West Leicestershire, Leicestershire, England, LE65 2RQ, United Kingdom",ok
"143 SPRING AVENUE ASHBY-DE-LA-ZOUCH, LE65 2RL, United Kingdom",52.7556104,-1.4853441,"Spring Avenue, Ashby-de-la-Zouch, North West Leicestershire, Leicestershire, England, LE65 2RQ, United Kingdom",ok
"1 MILES DRIVE ASHBY-DE-LA-ZOUCH, LE65 2RR, United Kingdom",,,"",no_result
"2 MILES DRIVE ASHBY-DE-LA-ZOUCH, LE65 2RR, United Kingdom",,,"",no_result
"3 MILES DRIVE ASHBY-DE-LA-ZOUCH, LE65 2RR, United Kingdom",,,"",no_result
"7 GLENALMOND CLOSE ASHBY-DE-LA-ZOUCH, LE65 2SD, United Kingdom",52.7542315,-1.4810053,"Glenalmond Close, Ashby-de-la-Zouch, North West Leicestershire, Leicestershire, England, LE65 2SD, United Kingdom",ok
"9 OUNDLE CLOSE ASHBY-DE-LA-ZOUCH, LE65 2SF, United Kingdom",52.754249,-1.4825708,"Oundle Close, Ashby-de-la-Zouch, North West Leicestershire, Leicestershire, England, LE65 2SF, United Kingdom",ok
"2 BEECH WAY ASHBY-DE-LA-ZOUCH, LE65 2SR, United Kingdom",52.749383,-1.459055,"Beech Way, Ashby-de-la-Zouch, North West Leicestershire, Leicestershire, England, LE65 2SR, United Kingdom",ok
"9 WESTMINSTER WAY ASHBY-DE-LA-ZOUCH, LE65 2SX, United Kingdom",52.7557642,-1.4798629,"Westminster Way, Ashby-de-la-Zouch, North West Leicestershire, Leicestershire, England, LE65 2SY, United Kingdom",ok
"1A SHELLBROOK CLOSE SHELLBROOK ASHBY-DE-LA-ZOUCH, LE65 2UJ, United Kingdom",52.7457672,-1.494597,"Shellbrook Close, Shellbrook, Ashby-de-la-Zouch, Norris Hill, North West Leicestershire, Leicestershire, England, LE65 2UJ, United Kingdom",ok
"11 CLIFTONTHORPE ASHBY-DE-LA-ZOUCH, LE65 2US, United Kingdom",52.7610602,-1.4748834,"Cliftonthorpe, Ashby-de-la-Zouch, North West Leicestershire, Leicestershire, England, LE65 2AD, United Kingdom",ok
"14 CLIFTONTHORPE ASHBY-DE-LA-ZOUCH, LE65 2US, United Kingdom",52.7610602,-1.4748834,"Cliftonthorpe, Ashby-de-la-Zouch, North West Leicestershire, Leicestershire, England, LE65 2AD, United Kingdom",ok
"25 CLIFTONTHORPE ASHBY-DE-LA-ZOUCH, LE65 2US, United Kingdom",52.7610602,-1.4748834,"Cliftonthorpe, Ashby-de-la-Zouch, North West Leicestershire, Leicestershire, England, LE65 2AD, United Kingdom",ok
"18 DICKINSON CLOSE ASHBY-DE-LA-ZOUCH, LE65 2WD, United Kingdom",52.7493315,-1.4903508,"Dickinson Close, Shellbrook, Ashby-de-la-Zouch, North West Leicestershire, Leicestershire, England, LE65 2WD, United Kingdom",ok
"19 DICKINSON CLOSE ASHBY-DE-LA-ZOUCH, LE65 2WD, United Kingdom",52.7493315,-1.4903508,"Dickinson Close, Shellbrook, Ashby-de-la-Zouch, North West Leicestershire, Leicestershire, England, LE65 2WD, United Kingdom",ok
"20 DICKINSON CLOSE ASHBY-DE-LA-ZOUCH, LE65 2WD, United Kingdom",52.7493315,-1.4903508,"Dickinson Close, Shellbrook, Ashby-de-la-Zouch, North West Leicestershire, Leicestershire, England, LE65 2WD, United Kingdom",ok
"21 DICKINSON CLOSE ASHBY-DE-LA-ZOUCH, LE65 2WD, United Kingdom",52.7493315,-1.4903508,"Dickinson Close, Shellbrook, Ashby-de-la-Zouch, North West Leicestershire, Leicestershire, England, LE65 2WD, United Kingdom",ok
"22 DICKINSON CLOSE ASHBY-DE-LA-ZOUCH, LE65 2WD, United Kingdom",52.7493315,-1.4903508,"Dickinson Close, Shellbrook, Ashby-de-la-Zouch, North West Leicestershire, Leicestershire, England, LE65 2WD, United Kingdom",ok
"23 DICKINSON CLOSE ASHBY-DE-LA-ZOUCH, LE65 2WD, United Kingdom",52.7493315,-1.4903508,"Dickinson Close, Shellbrook, Ashby-de-la-Zouch, North West Leicestershire, Leicestershire, England, LE65 2WD, United Kingdom",ok
"24 DICKINSON CLOSE ASHBY-DE-LA-ZOUCH, LE65 2WD, United Kingdom",52.7493315,-1.4903508,"Dickinson Close, Shellbrook, Ashby-de-la-Zouch, North West Leicestershire, Leicestershire, England, LE65 2WD, United Kingdom",ok
"25 DICKINSON CLOSE ASHBY-DE-LA-ZOUCH, LE65 2WD, United Kingdom",52.7493315,-1.4903508,"Dickinson Close, Shellbrook, Ashby-de-la-Zouch, North West Leicestershire, Leicestershire, England, LE65 2WD, United Kingdom",ok
"27 DICKINSON CLOSE ASHBY-DE-LA-ZOUCH, LE65 2WD, United Kingdom",52.7493315,-1.4903508,"Dickinson Close, Shellbrook, Ashby-de-la-Zouch, North West Leicestershire, Leicestershire, England, LE65 2WD, United Kingdom",ok
"29 DICKINSON CLOSE ASHBY-DE-LA-ZOUCH, LE65 2WD, United Kingdom",52.7493315,-1.4903508,"Dickinson Close, Shellbrook, Ashby-de-la-Zouch, North West Leicestershire, Leicestershire, England, LE65 2WD, United Kingdom",ok
"31 DICKINSON CLOSE ASHBY-DE-LA-ZOUCH, LE65 2WD, United Kingdom",52.7493315,-1.4903508,"Dickinson Close, Shellbrook, Ashby-de-la-Zouch, North West Leicestershire, Leicestershire, England, LE65 2WD, United Kingdom",ok
"54 THE GREEN DONINGTON LE HEATH COALVILLE, LE67 2GE, United Kingdom",,,"",no_result
"17 CLAREMONT DRIVE RAVENSTONE COALVILLE, LE67 2ND, United Kingdom",52.7300513,-1.3941809,"Claremont Drive, Ravenstone with Snibstone, Ravenstone, North West Leicestershire, Leicestershire, England, LE67 2ND, United Kingdom",ok
"76 ALBERT ROAD COALVILLE, LE67 3AA, United Kingdom",52.7257405,-1.3646729,"Albert Road, Greenhill, Coalville, North West Leicestershire, Leicestershire, England, LE67 3AF, United Kingdom",ok
"53 PARK ROAD COALVILLE, LE67 3AE, United Kingdom",,,"",no_result
"61 PARK ROAD COALVILLE, LE67 3AE, United Kingdom",52.7245674,-1.3661621,"Park Road, Greenhill, Coalville, North West Leicestershire, Leicestershire, England, LE67 3AD, United Kingdom",ok
"79 PARK ROAD COALVILLE, LE67 3AF, United Kingdom",,,"",no_result
"95 PARK ROAD COALVILLE, LE67 3AF, United Kingdom",52.7245674,-1.3661621,"Park Road, Greenhill, Coalville, North West Leicestershire, Leicestershire, England, LE67 3AD, United Kingdom",ok
"96 PARK ROAD COALVILLE, LE67 3AF, United Kingdom",,,"",no_result
"13 VICTORIA ROAD COALVILLE, LE67 3AG, United Kingdom",52.7248204,-1.3647741,"Victoria Road, Greenhill, Coalville, North West Leicestershire, Leicestershire, England, LE67 3AG, United Kingdom",ok
"43 VICTORIA ROAD COALVILLE, LE67 3AG, United Kingdom",52.7248204,-1.3647741,"Victoria Road, Greenhill, Coalville, North West Leicestershire, Leicestershire, England, LE67 3AG, United Kingdom",ok
"100 ALBERT ROAD COALVILLE, LE67 3AH, United Kingdom",52.7257405,-1.3646729,"Albert Road, Greenhill, Coalville, North West Leicestershire, Leicestershire, England, LE67 3AF, United Kingdom",ok
"121 ALBERT ROAD COALVILLE, LE67 3AH, United Kingdom",52.7257405,-1.3646729,"Albert Road, Greenhill, Coalville, North West Leicestershire, Leicestershire, England, LE67 3AF, United Kingdom",ok
"4 WILLIAM BEES ROAD COALVILLE, LE67 3AS, United Kingdom",52.7203129,-1.3705425,"William Bees Road, Coalville, North West Leicestershire, Leicestershire, England, LE67 3AS, United Kingdom",ok
"26 ADAM MORRIS WAY COALVILLE, LE67 3AU, United Kingdom",52.7199484,-1.36997,"Adam Morris Way, Coalville, North West Leicestershire, Leicestershire, England, LE67 3AU, United Kingdom",ok
"41 ADAM MORRIS WAY COALVILLE, LE67 3AU, United Kingdom",52.7199484,-1.36997,"Adam Morris Way, Coalville, North West Leicestershire, Leicestershire, England, LE67 3AU, United Kingdom",ok
"46 ADAM MORRIS WAY COALVILLE, LE67 3AU, United Kingdom",52.7199484,-1.36997,"Adam Morris Way, Coalville, North West Leicestershire, Leicestershire, England, LE67 3AU, United Kingdom",ok
"54 ADAM MORRIS WAY COALVILLE, LE67 3AU, United Kingdom",52.7199484,-1.36997,"Adam Morris Way, Coalville, North West Leicestershire, Leicestershire, England, LE67 3AU, United Kingdom",ok
"47 DISCOVERY CLOSE COALVILLE, LE67 3AW, United Kingdom",52.7282948,-1.3813458,"Discovery Close, Coalville, North West Leicestershire, Leicestershire, England, LE67 3AW, United Kingdom",ok
"74 BAKEWELL STREET COALVILLE, LE67 3BA, United Kingdom",52.7233698,-1.3620946,"Bakewell Street, Greenhill, Coalville, North West Leicestershire, Leicestershire, England, LE67 3BB, United Kingdom",ok
"103 BAKEWELL STREET COALVILLE, LE67 3BB, United Kingdom",52.7233698,-1.3620946,"Bakewell Street, Greenhill, Coalville, North West Leicestershire, Leicestershire, England, LE67 3BB, United Kingdom",ok
"63 BAKEWELL STREET COALVILLE, LE67 3BB, United Kingdom",52.7233698,-1.3620946,"Bakewell Street, Greenhill, Coalville, North West Leicestershire, Leicestershire, England, LE67 3BB, United Kingdom",ok
"1 BEDALE CLOSE COALVILLE, LE67 3BE, United Kingdom",52.7193577,-1.3773346,"Bedale Close, Coalville, North West Leicestershire, Leicestershire, England, LE67 3BE, United Kingdom",ok
"56 GUTTERIDGE STREET COALVILLE, LE67 3BH, United Kingdom",52.721424,-1.3747511,"Gutteridge Street, Coalville, North West Leicestershire, Leicestershire, England, LE67 3GG, United Kingdom",ok
"74B GUTTERIDGE STREET COALVILLE, LE67 3BH, United Kingdom",,,"",no_result
"63 GUTTERIDGE STREET COALVILLE, LE67 3BJ, United Kingdom",52.721424,-1.3747511,"Gutteridge Street, Coalville, North West Leicestershire, Leicestershire, England, LE67 3GG, United Kingdom",ok
"226 HIGHFIELD STREET COALVILLE, LE67 3BP, United Kingdom",52.7156711,-1.3785757,"Highfield Street, Hugglescote and Donington le Heath, Donington Le Heath, North West Leicestershire, Leicestershire, England, LE67 3BS, United Kingdom",ok
"67 HIGHFIELD STREET COALVILLE, LE67 3BR, United Kingdom",52.7188696,-1.375847,"Highfield Street, Coalville, North West Leicestershire, Leicestershire, England, LE67 3BL, United Kingdom",ok
"159 HIGHFIELD STREET COALVILLE, LE67 3BS, United Kingdom",52.7159978,-1.3775229,"159, Highfield Street, Hugglescote and Donington le Heath, Donington Le Heath, North West Leicestershire, Leicestershire, England, LE67 3BS, United Kingdom",ok
"195 HIGHFIELD STREET COALVILLE, LE67 3BT, United Kingdom",52.7156711,-1.3785757,"Highfield Street, Hugglescote and Donington le Heath, Donington Le Heath, North West Leicestershire, Leicestershire, England, LE67 3BS, United Kingdom",ok
"16 ST SAVIOURS ROAD COALVILLE, LE67 3DF, United Kingdom",,,"",no_result
"14 CHARNWOOD STREET COALVILLE, LE67 3DG, United Kingdom",52.7220924,-1.3599535,"Charnwood Street, Greenhill, Hugglescote, North West Leicestershire, Leicestershire, England, LE67 3DH, United Kingdom",ok
"60 WENTWORTH ROAD COALVILLE, LE67 3DJ, United Kingdom",52.7196034,-1.378208,"60, Wentworth Road, Coalville, North West Leicestershire, Leicestershire, England, LE67 3DL, United Kingdom",ok
"14 ACTION MAN ROAD COALVILLE, LE67 3EH, United Kingdom",52.7213125,-1.3789205,"Action Man Road, Coalville, North West Leicestershire, Leicestershire, England, LE67 3EH, United Kingdom",ok
"20 ACTION MAN ROAD COALVILLE, LE67 3EH, United Kingdom",52.7213125,-1.3789205,"Action Man Road, Coalville, North West Leicestershire, Leicestershire, England, LE67 3EH, United Kingdom",ok
"36 ACTION MAN ROAD COALVILLE, LE67 3EH, United Kingdom",52.7213125,-1.3789205,"Action Man Road, Coalville, North West Leicestershire, Leicestershire, England, LE67 3EH, United Kingdom",ok
"2 MANNING AVENUE COALVILLE, LE67 3EL, United Kingdom",,,"",no_result
"9 QUARTZ CLOSE COALVILLE, LE67 3FG, United Kingdom",,,"",no_result
"8 BRIDLE ROAD COALVILLE, LE67 3GB, United Kingdom",52.7343464,-1.3733628,"Bridle Road, Whitwick, Coalville, North West Leicestershire, Leicestershire, England, LE67 3GB, United Kingdom",ok
"20 VAUGHAN STREET COALVILLE, LE67 3GH, United Kingdom",52.7209792,-1.3760385,"Vaughan Street, Coalville, North West Leicestershire, Leicestershire, England, LE67 3GH, United Kingdom",ok
"19 OXFORD STREET COALVILLE, LE67 3GS, United Kingdom",52.7232922,-1.3602298,"Oxford Street, Greenhill, Coalville, North West Leicestershire, Leicestershire, England, LE67 3GR, United Kingdom",ok
"47 OXFORD STREET COALVILLE, LE67 3GS, United Kingdom",52.7232922,-1.3602298,"Oxford Street, Greenhill, Coalville, North West Leicestershire, Leicestershire, England, LE67 3GR, United Kingdom",ok
"67 OXFORD STREET COALVILLE, LE67 3GS, United Kingdom",52.7232922,-1.3602298,"Oxford Street, Greenhill, Coalville, North West Leicestershire, Leicestershire, England, LE67 3GR, United Kingdom",ok
"149 LONDON ROAD COALVILLE, LE67 3JE, United Kingdom",52.721601,-1.3625478,"London Road, Greenhill, Coalville, North West Leicestershire, Leicestershire, England, LE67 3JD, United Kingdom",ok
"169 LONDON ROAD COALVILLE, LE67 3JE, United Kingdom",52.721601,-1.3625478,"London Road, Greenhill, Coalville, North West Leicestershire, Leicestershire, England, LE67 3JD, United Kingdom",ok
"1 BOYLAN ROAD COALVILLE, LE67 3JG, United Kingdom",,,"",no_result
"18 GEORGE SMITH DRIVE COALVILLE, LE67 3JP, United Kingdom",52.7222863,-1.3662555,"George Smith Drive, Coalville, North West Leicestershire, Leicestershire, England, LE67 3JP, United Kingdom",ok
"20 GEORGE SMITH DRIVE COALVILLE, LE67 3JP, United Kingdom",52.7222863,-1.3662555,"George Smith Drive, Coalville, North West Leicestershire, Leicestershire, England, LE67 3JP, United Kingdom",ok
"5 GEORGE SMITH DRIVE COALVILLE, LE67 3JP, United Kingdom",52.7222863,-1.3662555,"George Smith Drive, Coalville, North West Leicestershire, Leicestershire, England, LE67 3JP, United Kingdom",ok
"192 ASHBY ROAD COALVILLE, LE67 3LD, United Kingdom",52.7287955,-1.3879907,"Ashby Road, Coalville, North West Leicestershire, Leicestershire, England, LE67 3LH, United Kingdom",ok
"234 ASHBY ROAD COALVILLE, LE67 3LD, United Kingdom",52.7287955,-1.3879907,"Ashby Road, Coalville, North West Leicestershire, Leicestershire, England, LE67 3LH, United Kingdom",ok
"256 ASHBY ROAD COALVILLE, LE67 3LD, United Kingdom",52.7287955,-1.3879907,"Ashby Road, Coalville, North West Leicestershire, Leicestershire, England, LE67 3LH, United Kingdom",ok
"364 ASHBY ROAD COALVILLE, LE67 3LE, United Kingdom",52.7287955,-1.3879907,"Ashby Road, Coalville, North West Leicestershire, Leicestershire, England, LE67 3LH, United Kingdom",ok
"382 ASHBY ROAD COALVILLE, LE67 3LE, United Kingdom",52.7287955,-1.3879907,"Ashby Road, Coalville, North West Leicestershire, Leicestershire, England, LE67 3LH, United Kingdom",ok
"386 ASHBY ROAD COALVILLE, LE67 3LE, United Kingdom",52.7287955,-1.3879907,"Ashby Road, Coalville, North West Leicestershire, Leicestershire, England, LE67 3LH, United Kingdom",ok
"343 ASHBY ROAD COALVILLE, LE67 3LH, United Kingdom",52.7287955,-1.3879907,"Ashby Road, Coalville, North West Leicestershire, Leicestershire, England, LE67 3LH, United Kingdom",ok
"401 ASHBY ROAD COALVILLE, LE67 3LJ, United Kingdom",52.7311216,-1.3947587,"Ashby Road, Ravenstone with Snibstone, Ravenstone, North West Leicestershire, Leicestershire, England, LE67 3NJ, United Kingdom",ok
"11 KENDRICK CLOSE COALVILLE, LE67 3LR, United Kingdom",52.727217,-1.3855792,"Kendrick Close, Coalville, North West Leicestershire, Leicestershire, England, LE67 3JG, United Kingdom",ok
"15 KENDRICK CLOSE COALVILLE, LE67 3LR, United Kingdom",52.727217,-1.3855792,"Kendrick Close, Coalville, North West Leicestershire, Leicestershire, England, LE67 3JG, United Kingdom",ok
"23 KENDRICK CLOSE COALVILLE, LE67 3LR, United Kingdom",52.727217,-1.3855792,"Kendrick Close, Coalville, North West Leicestershire, Leicestershire, England, LE67 3JG, United Kingdom",ok
"128 MARGARET STREET COALVILLE, LE67 3LX, United Kingdom",52.7245797,-1.3766649,"Margaret Street, Coalville, North West Leicestershire, Leicestershire, England, LE67 3LY, United Kingdom",ok
"74 MARGARET STREET COALVILLE, LE67 3LX, United Kingdom",52.7245797,-1.3766649,"Margaret Street, Coalville, North West Leicestershire, Leicestershire, England, LE67 3LY, United Kingdom",ok
"96 MARGARET STREET COALVILLE, LE67 3LX, United Kingdom",52.7245797,-1.3766649,"Margaret Street, Coalville, North West Leicestershire, Leicestershire, England, LE67 3LY, United Kingdom",ok
"89 RAVENSTONE ROAD COALVILLE, LE67 3NB, United Kingdom",52.7273661,-1.3891964,"Ravenstone Road, Ravenstone with Snibstone, Coalville, North West Leicestershire, Leicestershire, England, LE67 3NA, United Kingdom",ok
"63 JACKSON STREET COALVILLE, LE67 3NP, United Kingdom",52.7228457,-1.3761067,"Jackson Street, Coalville, North West Leicestershire, Leicestershire, England, LE67 3NP, United Kingdom",ok
"2 STADIUM CLOSE COALVILLE, LE67 3NX, United Kingdom",52.7181582,-1.3741769,"Stadium Close, Hugglescote, North West Leicestershire, Leicestershire, England, LE67 3NX, United Kingdom",ok
"131 BELVOIR ROAD COALVILLE, LE67 3PJ, United Kingdom",52.720384,-1.3729994,"Belvoir Road, Coalville, North West Leicestershire, Leicestershire, England, LE67 3PP, United Kingdom",ok
"139 BELVOIR ROAD COALVILLE, LE67 3PJ, United Kingdom",52.720384,-1.3729994,"Belvoir Road, Coalville, North West Leicestershire, Leicestershire, England, LE67 3PP, United Kingdom",ok
"191 BELVOIR ROAD COALVILLE, LE67 3PJ, United Kingdom",52.720384,-1.3729994,"Belvoir Road, Coalville, North West Leicestershire, Leicestershire, England, LE67 3PP, United Kingdom",ok
"219 BELVOIR ROAD COALVILLE, LE67 3PL, United Kingdom",52.720384,-1.3729994,"Belvoir Road, Coalville, North West Leicestershire, Leicestershire, England, LE67 3PP, United Kingdom",ok
"257 BELVOIR ROAD COALVILLE, LE67 3PL, United Kingdom",52.720384,-1.3729994,"Belvoir Road, Coalville, North West Leicestershire, Leicestershire, England, LE67 3PP, United Kingdom",ok
"29 BERRISFORD STREET COALVILLE, LE67 3PT, United Kingdom",52.7218228,-1.3720703,"Berrisford Street, Coalville, North West Leicestershire, Leicestershire, England, LE67 3PS, United Kingdom",ok
"45 BERRISFORD STREET COALVILLE, LE67 3PT, United Kingdom",52.7218228,-1.3720703,"Berrisford Street, Coalville, North West Leicestershire, Leicestershire, England, LE67 3PS, United Kingdom",ok
"57 BERRISFORD STREET COALVILLE, LE67 3PT, United Kingdom",52.7218228,-1.3720703,"Berrisford Street, Coalville, North West Leicestershire, Leicestershire, England, LE67 3PS, United Kingdom",ok
"18 BRIDGE ROAD COALVILLE, LE67 3PW, United Kingdom",52.7209699,-1.3708467,"Bridge Road, Coalville, North West Leicestershire, Leicestershire, England, LE67 3AS, United Kingdom",ok
"35 BURGESS ROAD COALVILLE, LE67 3PX, United Kingdom",,,"",no_result
"32 MELBOURNE STREET COALVILLE, LE67 3QT, United Kingdom",52.7224734,-1.3719829,"Melbourne Street, Coalville, North West Leicestershire, Leicestershire, England, LE67 3QU, United Kingdom",ok
"38 MELBOURNE STREET COALVILLE, LE67 3QT, United Kingdom",52.7224734,-1.3719829,"Melbourne Street, Coalville, North West Leicestershire, Leicestershire, England, LE67 3QU, United Kingdom",ok
"51 NORTH AVENUE COALVILLE, LE67 3QX, United Kingdom",52.7171598,-1.3703455,"North Avenue, Hugglescote and Donington le Heath, Hugglescote, North West Leicestershire, Leicestershire, England, LE67 3QX, United Kingdom",ok
"7 PRINCE STREET COALVILLE, LE67 3RA, United Kingdom",52.7186707,-1.3670905,"Prince Street, Hugglescote, North West Leicestershire, Leicestershire, England, LE67 3RA, United Kingdom",ok
"18 SCOTLANDS ROAD COALVILLE, LE67 3RD, United Kingdom",52.7212207,-1.3696586,"Scotlands Road, Coalville, North West Leicestershire, Leicestershire, England, LE67 3QP, United Kingdom",ok
"4 WYGGESTON ROAD COALVILLE, LE67 3RE, United Kingdom",52.7187827,-1.3711922,"Wyggeston Road, Hugglescote, North West Leicestershire, Leicestershire, England, LE67 3RE, United Kingdom",ok
"9 DAYTON CLOSE COALVILLE, LE67 3RG, United Kingdom",52.7296628,-1.3934778,"Dayton Close, Ravenstone, North West Leicestershire, Leicestershire, England, LE67 3RG, United Kingdom",ok
"28 BREACH ROAD COALVILLE, LE67 3SA, United Kingdom",,,"",no_result
"4 BREACH ROAD COALVILLE, LE67 3SA, United Kingdom",,,"",no_result
"33 BREACH ROAD COALVILLE, LE67 3SB, United Kingdom",,,"",no_result
"90 FOREST ROAD COALVILLE, LE67 3SH, United Kingdom",52.7195626,-1.3634847,"Forest Road, Greenhill, Hugglescote, North West Leicestershire, Leicestershire, England, LE67 3SP, United Kingdom",ok
"142 FOREST ROAD COALVILLE, LE67 3SJ, United Kingdom",52.7195626,-1.3634847,"Forest Road, Greenhill, Hugglescote, North West Leicestershire, Leicestershire, England, LE67 3SP, United Kingdom",ok
"176 FOREST ROAD COALVILLE, LE67 3SJ, United Kingdom",52.7195626,-1.3634847,"Forest Road, Greenhill, Hugglescote, North West Leicestershire, Leicestershire, England, LE67 3SP, United Kingdom",ok
"33 FOREST ROAD COALVILLE, LE67 3SN, United Kingdom",52.7195626,-1.3634847,"Forest Road, Greenhill, Hugglescote, North West Leicestershire, Leicestershire, England, LE67 3SP, United Kingdom",ok
"277 THORNBOROUGH ROAD COALVILLE, LE67 3TN, United Kingdom",52.7335893,-1.3739351,"Thornborough Road, Whitwick, Coalville, North West Leicestershire, Leicestershire, England, LE67 3GB, United Kingdom",ok
"8 HONEYSUCKLE CLOSE COALVILLE, LE67 4BB, United Kingdom",52.7178789,-1.3481701,"Honeysuckle Close, Greenhill, Coalville, North West Leicestershire, Leicestershire, England, LE67 4BB, United Kingdom",ok
"5 CURLEW CLOSE COALVILLE, LE67 4BD, United Kingdom",52.7194508,-1.3491133,"Curlew Close, Greenhill, Coalville, North West Leicestershire, Leicestershire, England, LE67 4BD, United Kingdom",ok
"139 BARDON ROAD COALVILLE, LE67 4BF, United Kingdom",52.7159563,-1.3497614,"139, Bardon Road, Agar Nook, Coalville, North West Leicestershire, Leicestershire, England, LE67 4BF, United Kingdom",ok
"205 BARDON ROAD COALVILLE, LE67 4BG, United Kingdom",52.7154555,-1.3493926,"Bardon Road, Agar Nook, Hugglescote, North West Leicestershire, Leicestershire, England, LE67 4BF, United Kingdom",ok
"54 BARDON ROAD COALVILLE, LE67 4BH, United Kingdom",52.7182439,-1.3544675,"Bardon Road, Agar Nook, Hugglescote, North West Leicestershire, Leicestershire, England, LE67 4BE, United Kingdom",ok
"84 BARDON ROAD COALVILLE, LE67 4BJ, United Kingdom",52.7154555,-1.3493926,"Bardon Road, Agar Nook, Hugglescote, North West Leicestershire, Leicestershire, England, LE67 4BF, United Kingdom",ok
"92 BARDON ROAD COALVILLE, LE67 4BJ, United Kingdom",52.7154555,-1.3493926,"Bardon Road, Agar Nook, Hugglescote, North West Leicestershire, Leicestershire, England, LE67 4BF, United Kingdom",ok
"234 BARDON ROAD COALVILLE, LE67 4BL, United Kingdom",52.711993,-1.3430162,"Bardon Road, Bardon, Coalville, North West Leicestershire, Leicestershire, England, LE67 4BL, United Kingdom",ok
"40 BROOM LEYS AVENUE COALVILLE, LE67 4BN, United Kingdom",52.7204338,-1.3562257,"Broom Leys Avenue, Greenhill, Hugglescote, North West Leicestershire, Leicestershire, England, LE67 4BP, United Kingdom",ok
"20 DEVANA AVENUE COALVILLE, LE67 4BQ, United Kingdom",52.7205339,-1.3573478,"Devana Avenue, Greenhill, Hugglescote, North West Leicestershire, Leicestershire, England, LE67 4BQ, United Kingdom",ok
"35 BOTTS WAY COALVILLE, LE67 4BT, United Kingdom",52.7182489,-1.3492028,"Botts Way, Agar Nook, Hugglescote, North West Leicestershire, Leicestershire, England, LE67 4BT, United Kingdom",ok
"23 SWAN WAY COALVILLE, LE67 4BU, United Kingdom",52.7177492,-1.3511424,"Swan Way, Agar Nook, Hugglescote, North West Leicestershire, Leicestershire, England, LE67 4BU, United Kingdom",ok
"15 DOVE ROAD COALVILLE, LE67 4BY, United Kingdom",52.7167497,-1.3486952,"Dove Road, Greenhill, Coalville, North West Leicestershire, Leicestershire, England, LE67 4BY, United Kingdom",ok
"25 DOVE ROAD COALVILLE, LE67 4BY, United Kingdom",52.7167497,-1.3486952,"Dove Road, Greenhill, Coalville, North West Leicestershire, Leicestershire, England, LE67 4BY, United Kingdom",ok
"10 WELLAND CLOSE COALVILLE, LE67 4BZ, United Kingdom",52.7173323,-1.3489934,"Welland Close, Greenhill, Coalville, North West Leicestershire, Leicestershire, England, LE67 4BZ, United Kingdom",ok
"8 WELLAND CLOSE COALVILLE, LE67 4BZ, United Kingdom",52.7173323,-1.3489934,"Welland Close, Greenhill, Coalville, North West Leicestershire, Leicestershire, England, LE67 4BZ, United Kingdom",ok
"48 BROOM LEYS ROAD COALVILLE, LE67 4DA, United Kingdom",52.7215965,-1.3575574,"Broom Leys Road, Greenhill, Hugglescote, North West Leicestershire, Leicestershire, England, LE67 4DR, United Kingdom",ok
"92 BROOM LEYS ROAD COALVILLE, LE67 4DB, United Kingdom",52.723347,-1.3461061,"Broom Leys Road, Greenhill, Coalville, North West Leicestershire, Leicestershire, England, LE67 4DB, United Kingdom",ok
"73 BROOM LEYS ROAD COALVILLE, LE67 4DE, United Kingdom",52.7231561,-1.3479866,"Broom Leys Road, Greenhill, Coalville, North West Leicestershire, Leicestershire, England, LE67 4DE, United Kingdom",ok
"1 HAMPTON CLOSE COALVILLE, LE67 4DH, United Kingdom",52.7191897,-1.3518487,"Hampton Close, Agar Nook, Hugglescote, North West Leicestershire, Leicestershire, England, LE67 4DH, United Kingdom",ok
"14 GREENFIELDS DRIVE COALVILLE, LE67 4DJ, United Kingdom",52.7236767,-1.3430639,"Greenfields Drive, Greenhill, Coalville, North West Leicestershire, Leicestershire, England, LE67 4DJ, United Kingdom",ok
"65 MEADOW LANE COALVILLE, LE67 4DN, United Kingdom",52.7275264,-1.3385922,"Meadow Lane, Greenhill, Coalville, North West Leicestershire, Leicestershire, England, LE67 4DQ, United Kingdom",ok
"81 SHARPLEY AVENUE COALVILLE, LE67 4DU, United Kingdom",52.7278881,-1.3437314,"Sharpley Avenue, Greenhill, Coalville, North West Leicestershire, Leicestershire, England, LE67 4DU, United Kingdom",ok
"2 HIGHGROVE CLOSE COALVILLE, LE67 4DW, United Kingdom",52.7199552,-1.3511587,"Highgrove Close, Agar Nook, Hugglescote, North West Leicestershire, Leicestershire, England, LE67 4DW, United Kingdom",ok
"6 HIGHGROVE CLOSE COALVILLE, LE67 4DW, United Kingdom",52.7199552,-1.3511587,"Highgrove Close, Agar Nook, Hugglescote, North West Leicestershire, Leicestershire, England, LE67 4DW, United Kingdom",ok
"5 HEADINGLEY CLOSE COALVILLE, LE67 4EF, United Kingdom",52.7166181,-1.345401,"Headingley Close, Greenhill, Coalville, North West Leicestershire, Leicestershire, England, LE67 4EF, United Kingdom",ok
"18 GUSCOTT ROAD COALVILLE, LE67 4EG, United Kingdom",52.7229575,-1.357168,"Guscott Road, Greenhill, Coalville, North West Leicestershire, Leicestershire, England, LE67 4EG, United Kingdom",ok
"3 JENKINS ROAD COALVILLE, LE67 4EH, United Kingdom",52.7251565,-1.3587021,"Jenkins Road, Greenhill, Coalville, North West Leicestershire, Leicestershire, England, LE67 4EH, United Kingdom",ok
"60 LONG LANE COALVILLE, LE67 4EJ, United Kingdom",52.7240506,-1.3581546,"Long Lane, Greenhill, Coalville, North West Leicestershire, Leicestershire, England, LE67 4DZ, United Kingdom",ok
"78 LONG LANE COALVILLE, LE67 4EJ, United Kingdom",52.7240506,-1.3581546,"Long Lane, Greenhill, Coalville, North West Leicestershire, Leicestershire, England, LE67 4DZ, United Kingdom",ok
"33 STAPLES DRIVE COALVILLE, LE67 4GB, United Kingdom",52.7173923,-1.3420041,"Staples Drive, Greenhill, Coalville, North West Leicestershire, Leicestershire, England, LE67 4GB, United Kingdom",ok
"51 STAPLES DRIVE COALVILLE, LE67 4GB, United Kingdom",52.7173923,-1.3420041,"Staples Drive, Greenhill, Coalville, North West Leicestershire, Leicestershire, England, LE67 4GB, United Kingdom",ok
"12 FLANNAGAN WAY COALVILLE, LE67 4GD, United Kingdom",52.7166575,-1.3408116,"Flannagan Way, Greenhill, Coalville, North West Leicestershire, Leicestershire, England, LE67 4GD, United Kingdom",ok
"23 FLANNAGAN WAY COALVILLE, LE67 4GD, United Kingdom",52.7166575,-1.3408116,"Flannagan Way, Greenhill, Coalville, North West Leicestershire, Leicestershire, England, LE67 4GD, United Kingdom",ok
"29 FLANNAGAN WAY COALVILLE, LE67 4GD, United Kingdom",52.7166575,-1.3408116,"Flannagan Way, Greenhill, Coalville, North West Leicestershire, Leicestershire, England, LE67 4GD, United Kingdom",ok
"10 KAY CLOSE COALVILLE, LE67 4GE, United Kingdom",52.7176558,-1.3414989,"Kay Close, Greenhill, Coalville, North West Leicestershire, Leicestershire, England, LE67 4GE, United Kingdom",ok
"11 KAY CLOSE COALVILLE, LE67 4GE, United Kingdom",52.7176558,-1.3414989,"Kay Close, Greenhill, Coalville, North West Leicestershire, Leicestershire, England, LE67 4GE, United Kingdom",ok
"19 KAY CLOSE COALVILLE, LE67 4GE, United Kingdom",52.7176558,-1.3414989,"Kay Close, Greenhill, Coalville, North West Leicestershire, Leicestershire, England, LE67 4GE, United Kingdom",ok
"30 BROUDER CLOSE COALVILLE, LE67 4GF, United Kingdom",52.7173863,-1.342694,"Brouder Close, Greenhill, Coalville, North West Leicestershire, Leicestershire, England, LE67 4GF, United Kingdom",ok
"1 HARKER DRIVE COALVILLE, LE67 4GG, United Kingdom",52.7169196,-1.3436212,"Harker Drive, Greenhill, Coalville, North West Leicestershire, Leicestershire, England, LE67 4GG, United Kingdom",ok
"45 HARKER DRIVE COALVILLE, LE67 4GG, United Kingdom",52.7169196,-1.3436212,"Harker Drive, Greenhill, Coalville, North West Leicestershire, Leicestershire, England, LE67 4GG, United Kingdom",ok
"56 STAPLES DRIVE COALVILLE, LE67 4GN, United Kingdom",52.7162864,-1.3425377,"Staples Drive, Greenhill, Coalville, North West Leicestershire, Leicestershire, England, LE67 4GN, United Kingdom",ok
"46 BRADGATE DRIVE COALVILLE, LE67 4HE, United Kingdom",52.7176549,-1.3350433,"Bradgate Drive, Agar Nook, Coalville, North West Leicestershire, Leicestershire, England, LE67 4HG, United Kingdom",ok
"15 GARENDON ROAD COALVILLE, LE67 4JA, United Kingdom",52.718468,-1.3351789,"Garendon Road, Agar Nook, Coalville, North West Leicestershire, Leicestershire, England, LE67 4JA, United Kingdom",ok
"101 WATERWORKS ROAD COALVILLE, LE67 4JJ, United Kingdom",52.7162826,-1.347288,"Waterworks Road, Greenhill, Coalville, North West Leicestershire, Leicestershire, England, LE67 4JJ, United Kingdom",ok
"33 WATERWORKS ROAD COALVILLE, LE67 4JJ, United Kingdom",52.7162826,-1.347288,"Waterworks Road, Greenhill, Coalville, North West Leicestershire, Leicestershire, England, LE67 4JJ, United Kingdom",ok
"8 BEECH TREE ROAD COALVILLE, LE67 4JN, United Kingdom",52.7181901,-1.3467136,"Beech Tree Road, Greenhill, Coalville, North West Leicestershire, Leicestershire, England, LE67 4JN, United Kingdom",ok
"19 OAK CLOSE COALVILLE, LE67 4JU, United Kingdom",52.7185957,-1.3467947,"Oak Close, Greenhill, Coalville, North West Leicestershire, Leicestershire, England, LE67 4JU, United Kingdom",ok
"1 ROBIN ROAD COALVILLE, LE67 4LB, United Kingdom",52.7188883,-1.3507386,"Robin Road, Agar Nook, Hugglescote, North West Leicestershire, Leicestershire, England, LE67 4LB, United Kingdom",ok
"17 ROBIN ROAD COALVILLE, LE67 4LB, United Kingdom",52.7188883,-1.3507386,"Robin Road, Agar Nook, Hugglescote, North West Leicestershire, Leicestershire, England, LE67 4LB, United Kingdom",ok
"18 HERON WAY COALVILLE, LE67 4LD, United Kingdom",52.7186802,-1.3498097,"Heron Way, Agar Nook, Hugglescote, North West Leicestershire, Leicestershire, England, LE67 4LD, United Kingdom",ok
"36 BUCKINGHAM ROAD COALVILLE, LE67 4PA, United Kingdom",52.7199964,-1.3495856,"Buckingham Road, Agar Nook, Hugglescote, North West Leicestershire, Leicestershire, England, LE67 4PA, United Kingdom",ok
"41 SANDRINGHAM ROAD COALVILLE, LE67 4PD, United Kingdom",52.7209073,-1.3527381,"Sandringham Road, Agar Nook, Hugglescote, North West Leicestershire, Leicestershire, England, LE67 4PD, United Kingdom",ok
"6 CLARENCE DRIVE COALVILLE, LE67 4PF, United Kingdom",52.7207595,-1.3520587,"Clarence Drive, Agar Nook, Hugglescote, North West Leicestershire, Leicestershire, England, LE67 4PF, United Kingdom",ok
"4 DROME CLOSE COALVILLE, LE67 4QR, United Kingdom",,,"",no_result
"14 ROMANS CRESCENT COALVILLE, LE67 4QU, United Kingdom",,,"",no_result
"46 ROMANS CRESCENT COALVILLE, LE67 4QU, United Kingdom",,,"",no_result
"64 NORTHFIELD DRIVE COALVILLE, LE67 4RD, United Kingdom",52.721817,-1.3352689,"Northfield Drive, Agar Nook, Coalville, North West Leicestershire, Leicestershire, England, LE67 4RD, United Kingdom",ok
"83 NORTHFIELD DRIVE COALVILLE, LE67 4RD, United Kingdom",52.721817,-1.3352689,"Northfield Drive, Agar Nook, Coalville, North West Leicestershire, Leicestershire, England, LE67 4RD, United Kingdom",ok
"24 MAPLEWELL COALVILLE, LE67 4RE, United Kingdom",52.7218619,-1.3418517,"Maplewell, Greenhill, Coalville, North West Leicestershire, Leicestershire, England, LE67 4RE, United Kingdom",ok
"14 GREENHILL ROAD COALVILLE, LE67 4RH, United Kingdom",52.7229539,-1.345163,"Greenhill Road, Greenhill, Coalville, North West Leicestershire, Leicestershire, England, LE67 4RL, United Kingdom",ok
"52 GREENHILL ROAD COALVILLE, LE67 4RH, United Kingdom",52.7229539,-1.345163,"Greenhill Road, Greenhill, Coalville, North West Leicestershire, Leicestershire, England, LE67 4RL, United Kingdom",ok
"112 GREENHILL ROAD COALVILLE, LE67 4RJ, United Kingdom",52.7229618,-1.3340411,"Greenhill Road, Agar Nook, Coalville, North West Leicestershire, Leicestershire, England, LE67 4RN, United Kingdom",ok
"140 GREENHILL ROAD COALVILLE, LE67 4RJ, United Kingdom",52.7229618,-1.3340411,"Greenhill Road, Agar Nook, Coalville, North West Leicestershire, Leicestershire, England, LE67 4RN, United Kingdom",ok
"172 GREENHILL ROAD COALVILLE, LE67 4RJ, United Kingdom",52.7229618,-1.3340411,"Greenhill Road, Agar Nook, Coalville, North West Leicestershire, Leicestershire, England, LE67 4RN, United Kingdom",ok
"176 GREENHILL ROAD COALVILLE, LE67 4RJ, United Kingdom",52.7229618,-1.3340411,"Greenhill Road, Agar Nook, Coalville, North West Leicestershire, Leicestershire, England, LE67 4RN, United Kingdom",ok
"105 GREENHILL ROAD COALVILLE, LE67 4RL, United Kingdom",52.7229539,-1.345163,"Greenhill Road, Greenhill, Coalville, North West Leicestershire, Leicestershire, England, LE67 4RL, United Kingdom",ok
"73 KENMORE CRESCENT COALVILLE, LE67 4RQ, United Kingdom",,,"",no_result
"4 CROMORE CLOSE COALVILLE, LE67 4RR, United Kingdom",,,"",no_result
"22 DUNBAR ROAD COALVILLE, LE67 4RT, United Kingdom",,,"",no_result
"32 DUNBAR ROAD COALVILLE, LE67 4RT, United Kingdom",,,"",no_result
"8 HELMSDALE CLOSE COALVILLE, LE67 4RU, United Kingdom",,,"",no_result
"23 STONEHAVEN CLOSE COALVILLE, LE67 4RY, United Kingdom",,,"",no_result
"7 STRATHMORE CLOSE COALVILLE, LE67 4RZ, United Kingdom",,,"",no_result
"101 CASTLE ROCK DRIVE COALVILLE, LE67 4SE, United Kingdom",52.7297004,-1.3322068,"Castle Rock Drive, Agar Nook, Coalville, North West Leicestershire, Leicestershire, England, LE67 4SE, United Kingdom",ok
"29 CASTLE ROCK DRIVE COALVILLE, LE67 4SE, United Kingdom",52.7297004,-1.3322068,"Castle Rock Drive, Agar Nook, Coalville, North West Leicestershire, Leicestershire, England, LE67 4SE, United Kingdom",ok
"47 CASTLE ROCK DRIVE COALVILLE, LE67 4SE, United Kingdom",52.7297004,-1.3322068,"Castle Rock Drive, Agar Nook, Coalville, North West Leicestershire, Leicestershire, England, LE67 4SE, United Kingdom",ok
"3 GRASMERE COALVILLE, LE67 4SH, United Kingdom",52.7268866,-1.3347181,"Grasmere, Agar Nook, Coalville, North West Leicestershire, Leicestershire, England, LE67 4SH, United Kingdom",ok
"66 ST DAVIDS CRESCENT COALVILLE, LE67 4SU, United Kingdom",,,"",no_result
"4 THIRLMERE COALVILLE, LE67 4SW, United Kingdom",,,"",no_result
"3 WILLOW GREEN COALVILLE, LE67 4SZ, United Kingdom",52.7281002,-1.3315762,"Willow Green, Agar Nook, Coalville, North West Leicestershire, Leicestershire, England, LE67 4SZ, United Kingdom",ok
"29 STRETTON DRIVE COALVILLE, LE67 4TD, United Kingdom",,,"",no_result
"3 WINDSOR CLOSE COALVILLE, LE67 4TY, United Kingdom",52.7233269,-1.3421567,"Windsor Close, Greenhill, Coalville, North West Leicestershire, Leicestershire, England, LE67 4TY, United Kingdom",ok
"63 CITRON AVENUE COALVILLE, LE67 4UD, United Kingdom",,,"",no_result
"67 CITRON AVENUE COALVILLE, LE67 4UD, United Kingdom",,,"",no_result
"69 CITRON AVENUE COALVILLE, LE67 4UD, United Kingdom",,,"",no_result
"71 CITRON AVENUE COALVILLE, LE67 4UD, United Kingdom",,,"",no_result
"73 CITRON AVENUE COALVILLE, LE67 4UD, United Kingdom",,,"",no_result
"175 GREENHILL ROAD COALVILLE, LE67 4UF, United Kingdom",52.7229618,-1.3340411,"Greenhill Road, Agar Nook, Coalville, North West Leicestershire, Leicestershire, England, LE67 4RN, United Kingdom",ok
"10 BRUNSWICK AVENUE COALVILLE, LE67 4UP, United Kingdom",,,"",no_result
"11 OLIVE GROVE COALVILLE, LE67 4UQ, United Kingdom",,,"",no_result
"THE CHASE WARREN HILLS ROAD COALVILLE, LE67 4UX, United Kingdom",,,"",no_result
"28 CASTLE STREET WHITWICK COALVILLE, LE67 5AG, United Kingdom",,,"",no_result
"47 THOMAS ROAD WHITWICK COALVILLE, LE67 5FY, United Kingdom",52.7414152,-1.3650186,"Thomas Road, Whitwick, Thringstone, North West Leicestershire, Leicestershire, England, LE67 5FY, United Kingdom",ok
"6 VICTORIA ROAD IBSTOCK, LE67 6AA, United Kingdom",52.6968181,-1.3961243,"Victoria Road, Ibstock, Donington Le Heath, North West Leicestershire, Leicestershire, England, LE67 6AA, United Kingdom",ok
"11 GAMBLE CLOSE IBSTOCK, LE67 6AB, United Kingdom",52.6957709,-1.3976108,"Gamble Close, Ibstock, Donington Le Heath, North West Leicestershire, Leicestershire, England, LE67 6AB, United Kingdom",ok
"6 PAGET ROAD IBSTOCK, LE67 6AF, United Kingdom",52.696181,-1.3974448,"Paget Road, Ibstock, Donington Le Heath, North West Leicestershire, Leicestershire, England, LE67 6AF, United Kingdom",ok
"10 WELLINGTON COURT IBSTOCK, LE67 6AG, United Kingdom",52.6947832,-1.3956694,"Wellington Court, Ibstock, North West Leicestershire, Leicestershire, England, LE67 6AG, United Kingdom",ok
"6B WELLINGTON COURT IBSTOCK, LE67 6AG, United Kingdom",52.6947832,-1.3956694,"Wellington Court, Ibstock, North West Leicestershire, Leicestershire, England, LE67 6AG, United Kingdom",ok
"7 WELLINGTON COURT IBSTOCK, LE67 6AG, United Kingdom",52.6947832,-1.3956694,"Wellington Court, Ibstock, North West Leicestershire, Leicestershire, England, LE67 6AG, United Kingdom",ok
"19 THE HASTINGS IBSTOCK, LE67 6GB, United Kingdom",52.691289,-1.399738,"The Hastings, Ibstock, North West Leicestershire, Leicestershire, England, LE67 6GB, United Kingdom",ok
"19 WATER MEADOW WAY IBSTOCK, LE67 6GY, United Kingdom",52.685521,-1.3967751,"Water Meadow Way, Ibstock, North West Leicestershire, Leicestershire, England, LE67 6GY, United Kingdom",ok
"10 CHAPEL STREET IBSTOCK, LE67 6HE, United Kingdom",52.6902756,-1.397928,"Chapel Street, Ibstock, North West Leicestershire, Leicestershire, England, LE67 6JN, United Kingdom",ok
"41 LEICESTER ROAD IBSTOCK, LE67 6HN, United Kingdom",52.6958516,-1.3956713,"Leicester Road, Ibstock, Donington Le Heath, North West Leicestershire, Leicestershire, England, LE67 6HN, United Kingdom",ok
"8A REDLANDS ESTATE IBSTOCK, LE67 6HT, United Kingdom",52.6966768,-1.3927096,"Redlands Estate, Ibstock, Donington Le Heath, North West Leicestershire, Leicestershire, England, LE67 6HT, United Kingdom",ok
"4 HAWTHORNE DRIVE IBSTOCK, LE67 6JB, United Kingdom",52.6836175,-1.4049142,"Hawthorne Drive, Ibstock, North West Leicestershire, Leicestershire, England, LE67 6JB, United Kingdom",ok
"103 STATION ROAD IBSTOCK, LE67 6JL, United Kingdom",52.6883086,-1.4089871,"Station Road, Ibstock, North West Leicestershire, Leicestershire, England, LE67 6JJ, United Kingdom",ok
"29 STATION ROAD IBSTOCK, LE67 6JL, United Kingdom",52.6883086,-1.4089871,"Station Road, Ibstock, North West Leicestershire, Leicestershire, England, LE67 6JJ, United Kingdom",ok
"89 STATION ROAD IBSTOCK, LE67 6JL, United Kingdom",52.6883086,-1.4089871,"Station Road, Ibstock, North West Leicestershire, Leicestershire, England, LE67 6JJ, United Kingdom",ok
"24 MELBOURNE ROAD IBSTOCK, LE67 6JS, United Kingdom",52.6890472,-1.401194,"Melbourne Road, Ibstock, North West Leicestershire, Leicestershire, England, LE67 6NP, United Kingdom",ok
"40 PARKDALE IBSTOCK, LE67 6JW, United Kingdom",52.6904207,-1.4070363,"Parkdale, Ibstock, North West Leicestershire, Leicestershire, England, LE67 6HR, United Kingdom",ok
"78 PARKDALE IBSTOCK, LE67 6JZ, United Kingdom",52.6904207,-1.4070363,"Parkdale, Ibstock, North West Leicestershire, Leicestershire, England, LE67 6HR, United Kingdom",ok
"68 COPSON STREET IBSTOCK, LE67 6LB, United Kingdom",52.6878346,-1.3936048,"Copson Street, Ibstock, North West Leicestershire, Leicestershire, England, LE67 6LD, United Kingdom",ok
"53 COPSON STREET IBSTOCK, LE67 6LD, United Kingdom",52.6878346,-1.3936048,"Copson Street, Ibstock, North West Leicestershire, Leicestershire, England, LE67 6LD, United Kingdom",ok
"38 GRANGE ROAD IBSTOCK, LE67 6LF, United Kingdom",52.6863835,-1.396831,"Grange Road, Ibstock, North West Leicestershire, Leicestershire, England, LE67 6LF, United Kingdom",ok
"43A HIGH STREET IBSTOCK, LE67 6LH, United Kingdom",,,"",no_result
"9 ORCHARD STREET IBSTOCK, LE67 6LL, United Kingdom",52.6868992,-1.3960804,"Orchard Street, Ibstock, North West Leicestershire, Leicestershire, England, LE67 6LL, United Kingdom",ok
"193 PRETORIA ROAD IBSTOCK, LE67 6LQ, United Kingdom",52.6912196,-1.3870665,"Pretoria Road, Ibstock, Ellistown, North West Leicestershire, Leicestershire, England, LE67 6LN, United Kingdom",ok
"10 SPRING ROAD IBSTOCK, LE67 6LR, United Kingdom",52.6914048,-1.3940292,"Spring Road, Ibstock, North West Leicestershire, Leicestershire, England, LE67 6LR, United Kingdom",ok
"35 DEEPDALE CLOSE IBSTOCK, LE67 6LW, United Kingdom",52.6913666,-1.3967411,"Deepdale Close, Ibstock, North West Leicestershire, Leicestershire, England, LE67 6LW, United Kingdom",ok
"20 LAUD CLOSE IBSTOCK, LE67 6NL, United Kingdom",52.6881673,-1.4041387,"Laud Close, Ibstock, North West Leicestershire, Leicestershire, England, LE67 6NY, United Kingdom",ok
"132 MELBOURNE ROAD IBSTOCK, LE67 6NN, United Kingdom",52.6890472,-1.401194,"Melbourne Road, Ibstock, North West Leicestershire, Leicestershire, England, LE67 6NP, United Kingdom",ok
"153 MELBOURNE ROAD IBSTOCK, LE67 6NQ, United Kingdom",52.6890472,-1.401194,"Melbourne Road, Ibstock, North West Leicestershire, Leicestershire, England, LE67 6NP, United Kingdom",ok
"290 MELBOURNE ROAD IBSTOCK, LE67 6NR, United Kingdom",52.6890472,-1.401194,"Melbourne Road, Ibstock, North West Leicestershire, Leicestershire, England, LE67 6NP, United Kingdom",ok
"41 VALLEY ROAD IBSTOCK, LE67 6NY, United Kingdom",52.6871968,-1.4035344,"Valley Road, Ibstock, North West Leicestershire, Leicestershire, England, LE67 6NY, United Kingdom",ok
"76 THORNDALE IBSTOCK, LE67 6PS, United Kingdom",52.6895294,-1.4050787,"Thorndale, Ibstock, North West Leicestershire, Leicestershire, England, LE67 6JE, United Kingdom",ok
"2 LEWIS CLOSE IBSTOCK, LE67 6QH, United Kingdom",52.6862124,-1.4072371,"Lewis Close, Ibstock, North West Leicestershire, Leicestershire, England, LE67 6QH, United Kingdom",ok
"16 SATCHWELL PLACE IBSTOCK, LE67 6QN, United Kingdom",52.6856877,-1.4089615,"Satchwell Place, Ibstock, North West Leicestershire, Leicestershire, England, LE67 6QN, United Kingdom",ok
"10 REDSHAW LANE IBSTOCK, LE67 6QR, United Kingdom",,,"",no_result
"11 REDSHAW LANE IBSTOCK, LE67 6QR, United Kingdom",,,"",no_result
"8 REDSHAW LANE IBSTOCK, LE67 6QR, United Kingdom",,,"",no_result
"1 RILEY DRIVE IBSTOCK, LE67 6QS, United Kingdom",52.6870675,-1.4098025,"Riley Drive, Ibstock, North West Leicestershire, Leicestershire, England, LE67 6QS, United Kingdom",ok
"11 RILEY DRIVE IBSTOCK, LE67 6QS, United Kingdom",52.6870675,-1.4098025,"Riley Drive, Ibstock, North West Leicestershire, Leicestershire, England, LE67 6QS, United Kingdom",ok
"12 RILEY DRIVE IBSTOCK, LE67 6QS, United Kingdom",52.6870675,-1.4098025,"Riley Drive, Ibstock, North West Leicestershire, Leicestershire, England, LE67 6QS, United Kingdom",ok
"14 RILEY DRIVE IBSTOCK, LE67 6QS, United Kingdom",52.6870675,-1.4098025,"Riley Drive, Ibstock, North West Leicestershire, Leicestershire, England, LE67 6QS, United Kingdom",ok
"15 RILEY DRIVE IBSTOCK, LE67 6QS, United Kingdom",52.6870675,-1.4098025,"Riley Drive, Ibstock, North West Leicestershire, Leicestershire, England, LE67 6QS, United Kingdom",ok
"16 RILEY DRIVE IBSTOCK, LE67 6QS, United Kingdom",52.6870675,-1.4098025,"Riley Drive, Ibstock, North West Leicestershire, Leicestershire, England, LE67 6QS, United Kingdom",ok
"17 RILEY DRIVE IBSTOCK, LE67 6QS, United Kingdom",52.6870675,-1.4098025,"Riley Drive, Ibstock, North West Leicestershire, Leicestershire, England, LE67 6QS, United Kingdom",ok
"18 RILEY DRIVE IBSTOCK, LE67 6QS, United Kingdom",52.6870675,-1.4098025,"Riley Drive, Ibstock, North West Leicestershire, Leicestershire, England, LE67 6QS, United Kingdom",ok
"19 RILEY DRIVE IBSTOCK, LE67 6QS, United Kingdom",52.6870675,-1.4098025,"Riley Drive, Ibstock, North West Leicestershire, Leicestershire, England, LE67 6QS, United Kingdom",ok
"21 RILEY DRIVE IBSTOCK, LE67 6QS, United Kingdom",52.6870675,-1.4098025,"Riley Drive, Ibstock, North West Leicestershire, Leicestershire, England, LE67 6QS, United Kingdom",ok
"23 RILEY DRIVE IBSTOCK, LE67 6QS, United Kingdom",52.6870675,-1.4098025,"Riley Drive, Ibstock, North West Leicestershire, Leicestershire, England, LE67 6QS, United Kingdom",ok
"25 RILEY DRIVE IBSTOCK, LE67 6QS, United Kingdom",52.6870675,-1.4098025,"Riley Drive, Ibstock, North West Leicestershire, Leicestershire, England, LE67 6QS, United Kingdom",ok
"27 RILEY DRIVE IBSTOCK, LE67 6QS, United Kingdom",52.6870675,-1.4098025,"Riley Drive, Ibstock, North West Leicestershire, Leicestershire, England, LE67 6QS, United Kingdom",ok
"29 RILEY DRIVE IBSTOCK, LE67 6QS, United Kingdom",52.6870675,-1.4098025,"Riley Drive, Ibstock, North West Leicestershire, Leicestershire, England, LE67 6QS, United Kingdom",ok
"3 RILEY DRIVE IBSTOCK, LE67 6QS, United Kingdom",52.6870675,-1.4098025,"Riley Drive, Ibstock, North West Leicestershire, Leicestershire, England, LE67 6QS, United Kingdom",ok
"31 RILEY DRIVE IBSTOCK, LE67 6QS, United Kingdom",52.6870675,-1.4098025,"Riley Drive, Ibstock, North West Leicestershire, Leicestershire, England, LE67 6QS, United Kingdom",ok
"48 RILEY DRIVE IBSTOCK, LE67 6QS, United Kingdom",52.6870675,-1.4098025,"Riley Drive, Ibstock, North West Leicestershire, Leicestershire, England, LE67 6QS, United Kingdom",ok
"5 RILEY DRIVE IBSTOCK, LE67 6QS, United Kingdom",52.6870675,-1.4098025,"Riley Drive, Ibstock, North West Leicestershire, Leicestershire, England, LE67 6QS, United Kingdom",ok
"50 RILEY DRIVE IBSTOCK, LE67 6QS, United Kingdom",52.6870675,-1.4098025,"Riley Drive, Ibstock, North West Leicestershire, Leicestershire, England, LE67 6QS, United Kingdom",ok
"52 RILEY DRIVE IBSTOCK, LE67 6QS, United Kingdom",52.6870675,-1.4098025,"Riley Drive, Ibstock, North West Leicestershire, Leicestershire, England, LE67 6QS, United Kingdom",ok
"54 RILEY DRIVE IBSTOCK, LE67 6QS, United Kingdom",52.6870675,-1.4098025,"Riley Drive, Ibstock, North West Leicestershire, Leicestershire, England, LE67 6QS, United Kingdom",ok
"56 RILEY DRIVE IBSTOCK, LE67 6QS, United Kingdom",52.6870675,-1.4098025,"Riley Drive, Ibstock, North West Leicestershire, Leicestershire, England, LE67 6QS, United Kingdom",ok
"58 RILEY DRIVE IBSTOCK, LE67 6QS, United Kingdom",52.6870675,-1.4098025,"Riley Drive, Ibstock, North West Leicestershire, Leicestershire, England, LE67 6QS, United Kingdom",ok
"60 RILEY DRIVE IBSTOCK, LE67 6QS, United Kingdom",52.6870675,-1.4098025,"Riley Drive, Ibstock, North West Leicestershire, Leicestershire, England, LE67 6QS, United Kingdom",ok
"62 RILEY DRIVE IBSTOCK, LE67 6QS, United Kingdom",52.6870675,-1.4098025,"Riley Drive, Ibstock, North West Leicestershire, Leicestershire, England, LE67 6QS, United Kingdom",ok
"7 RILEY DRIVE IBSTOCK, LE67 6QS, United Kingdom",52.6870675,-1.4098025,"Riley Drive, Ibstock, North West Leicestershire, Leicestershire, England, LE67 6QS, United Kingdom",ok
"8 RILEY DRIVE IBSTOCK, LE67 6QS, United Kingdom",52.6870675,-1.4098025,"Riley Drive, Ibstock, North West Leicestershire, Leicestershire, England, LE67 6QS, United Kingdom",ok
"9 RILEY DRIVE IBSTOCK, LE67 6QS, United Kingdom",52.6870675,-1.4098025,"Riley Drive, Ibstock, North West Leicestershire, Leicestershire, England, LE67 6QS, United Kingdom",ok
"89 MANOR ROAD BARLESTONE NUNEATON, CV13 0HA, United Kingdom",,,,no_result
"8 MANOR ROAD BARLESTONE NUNEATON, CV13 0HY, United Kingdom",,,,no_result
"26 CHESSHER STREET HINCKLEY, LE10 0AH, United Kingdom",52.5427605,-1.3759071,"Chessher Street, Hinckley, Hinckley and Bosworth, Leicestershire, England, LE10 0AH, United Kingdom",ok
"9 MANOR STREET HINCKLEY, LE10 0AS, United Kingdom",52.5439235,-1.3753408,"Manor Street, Hinckley, Hinckley and Bosworth, Leicestershire, England, LE10 0AS, United Kingdom",ok
"40 MILL HILL ROAD HINCKLEY, LE10 0AX, United Kingdom",52.542521,-1.3768115,"Mill Hill Road, Hinckley, Hinckley and Bosworth, Leicestershire, England, LE10 0AX, United Kingdom",ok
"2 JOVIAN DRIVE HINCKLEY, LE10 0BF, United Kingdom",52.5450243,-1.3954517,"Jovian Drive, Hinckley, Hinckley and Bosworth, Leicestershire, England, LE10 0WX, United Kingdom",ok
"56 TRINITY LANE HINCKLEY, LE10 0BH, United Kingdom",52.5427403,-1.3754045,"56, Trinity Lane, Hinckley, Hinckley and Bosworth, Leicestershire, England, LE10 0BS, United Kingdom",ok
"80 TRINITY LANE HINCKLEY, LE10 0BJ, United Kingdom",52.5409433,-1.3754867,"Trinity Lane, Hinckley, Hinckley and Bosworth, Leicestershire, England, LE10 0BJ, United Kingdom",ok
"17 TRINITY LANE HINCKLEY, LE10 0BQ, United Kingdom",52.5427374,-1.3752622,"Trinity Lane, Hinckley, Hinckley and Bosworth, Leicestershire, England, LE10 0BS, United Kingdom",ok
"14 RICHMOND GATE HINCKLEY, LE10 0BW, United Kingdom",52.5542637,-1.3752615,"Richmond Gate, Hinckley, Hinckley and Bosworth, Leicestershire, England, LE10 0AF, United Kingdom",ok
"45 RICHMOND GATE HINCKLEY, LE10 0BW, United Kingdom",52.5542637,-1.3752615,"Richmond Gate, Hinckley, Hinckley and Bosworth, Leicestershire, England, LE10 0AF, United Kingdom",ok
"51 RICHMOND GATE HINCKLEY, LE10 0BW, United Kingdom",52.5542637,-1.3752615,"Richmond Gate, Hinckley, Hinckley and Bosworth, Leicestershire, England, LE10 0AF, United Kingdom",ok
"42 TRINITY VICARAGE ROAD HINCKLEY, LE10 0BX, United Kingdom",52.5414076,-1.377986,"Trinity Vicarage Road, Hinckley, Hinckley and Bosworth, Leicestershire, England, LE10 0LQ, United Kingdom",ok
"17 TRINITY COURT HINCKLEY, LE10 0BY, United Kingdom",52.540934,-1.3762757,"Trinity Court, Hinckley, Hinckley and Bosworth, Leicestershire, England, LE10 0BY, United Kingdom",ok
"30 TRINITY COURT HINCKLEY, LE10 0BY, United Kingdom",52.540934,-1.3762757,"Trinity Court, Hinckley, Hinckley and Bosworth, Leicestershire, England, LE10 0BY, United Kingdom",ok
"28 WHITWORTH AVENUE HINCKLEY, LE10 0DD, United Kingdom",52.5347838,-1.3978411,"Whitworth Avenue, Hinckley, Hinckley and Bosworth, Leicestershire, England, LE10 0DD, United Kingdom",ok
"5 CANAL WAY HINCKLEY, LE10 0DE, United Kingdom",52.5337812,-1.3988565,"Canal Way, Hinckley, Hinckley and Bosworth, Leicestershire, England, LE10 0DE, United Kingdom",ok
"73 BURLEIGH ROAD HINCKLEY, LE10 0DG, United Kingdom",52.5496408,-1.3808843,"Burleigh Road, Hinckley, Hinckley and Bosworth, Leicestershire, England, LE10 0DG, United Kingdom",ok
"11 EDWARD STREET HINCKLEY, LE10 0DH, United Kingdom",52.5479954,-1.3743215,"Edward Street, Hinckley, Hinckley and Bosworth, Leicestershire, England, LE10 0DH, United Kingdom",ok
"51 EDWARD STREET HINCKLEY, LE10 0DH, United Kingdom",52.5479954,-1.3743215,"Edward Street, Hinckley, Hinckley and Bosworth, Leicestershire, England, LE10 0DH, United Kingdom",ok
"75 EDWARD STREET HINCKLEY, LE10 0DH, United Kingdom",52.5479954,-1.3743215,"Edward Street, Hinckley, Hinckley and Bosworth, Leicestershire, England, LE10 0DH, United Kingdom",ok
"121 EDWARD STREET HINCKLEY, LE10 0DJ, United Kingdom",52.55015,-1.3762994,"Edward Street, Hinckley, Hinckley and Bosworth, Leicestershire, England, LE10 0DJ, United Kingdom",ok
"10 EDWARD STREET HINCKLEY, LE10 0DL, United Kingdom",52.5479954,-1.3743215,"Edward Street, Hinckley, Hinckley and Bosworth, Leicestershire, England, LE10 0DH, United Kingdom",ok
"4 EDWARD STREET HINCKLEY, LE10 0DL, United Kingdom",52.5479954,-1.3743215,"Edward Street, Hinckley, Hinckley and Bosworth, Leicestershire, England, LE10 0DH, United Kingdom",ok
"106 BURLEIGH ROAD HINCKLEY, LE10 0DQ, United Kingdom",52.5496408,-1.3808843,"Burleigh Road, Hinckley, Hinckley and Bosworth, Leicestershire, England, LE10 0DG, United Kingdom",ok
"64 BURLEIGH ROAD HINCKLEY, LE10 0DQ, United Kingdom",52.5496408,-1.3808843,"Burleigh Road, Hinckley, Hinckley and Bosworth, Leicestershire, England, LE10 0DG, United Kingdom",ok
"74 BURLEIGH ROAD HINCKLEY, LE10 0DQ, United Kingdom",52.5496408,-1.3808843,"Burleigh Road, Hinckley, Hinckley and Bosworth, Leicestershire, England, LE10 0DG, United Kingdom",ok
"94 BURLEIGH ROAD HINCKLEY, LE10 0DQ, United Kingdom",52.5496408,-1.3808843,"Burleigh Road, Hinckley, Hinckley and Bosworth, Leicestershire, England, LE10 0DG, United Kingdom",ok
"20 FACTORY ROAD HINCKLEY, LE10 0DR, United Kingdom",52.5464983,-1.3727732,"Factory Road, Hinckley, Hinckley and Bosworth, Leicestershire, England, LE10 1RS, United Kingdom",ok
"126 FACTORY ROAD HINCKLEY, LE10 0DS, United Kingdom",52.5464983,-1.3727732,"Factory Road, Hinckley, Hinckley and Bosworth, Leicestershire, England, LE10 1RS, United Kingdom",ok
"16 GARDEN ROAD HINCKLEY, LE10 0DX, United Kingdom",52.5460882,-1.3743125,"Garden Road, Hinckley, Hinckley and Bosworth, Leicestershire, England, LE10 0DX, United Kingdom",ok
"36 GOPSALL ROAD HINCKLEY, LE10 0DY, United Kingdom",52.546868,-1.3741801,"Gopsall Road, Hinckley, Hinckley and Bosworth, Leicestershire, England, LE10 0DY, United Kingdom",ok
"42 GOPSALL ROAD HINCKLEY, LE10 0DY, United Kingdom",52.546868,-1.3741801,"Gopsall Road, Hinckley, Hinckley and Bosworth, Leicestershire, England, LE10 0DY, United Kingdom",ok
"15B STOKE ROAD HINCKLEY, LE10 0EA, United Kingdom",52.5518362,-1.3834373,"Stoke Road, Hinckley, Hinckley and Bosworth, Leicestershire, England, LE10 0EL, United Kingdom",ok
"26 STOKE ROAD HINCKLEY, LE10 0EA, United Kingdom",52.5503936,-1.3829384,"26, Stoke Road, Hinckley, Hinckley and Bosworth, Leicestershire, England, LE10 0EL, United Kingdom",ok
"3A TUDOR ROAD HINCKLEY, LE10 0EF, United Kingdom",52.5529651,-1.3718919,"Tudor Road, Hinckley, Hinckley and Bosworth, Leicestershire, England, LE10 0RE, United Kingdom",ok
"9 CADEBY CLOSE HINCKLEY, LE10 0EL, United Kingdom",52.5514972,-1.3839307,"Cadeby Close, Hinckley, Hinckley and Bosworth, Leicestershire, England, LE10 0EL, United Kingdom",ok
"18 TUDOR ROAD HINCKLEY, LE10 0EQ, United Kingdom",52.5513085,-1.37788,"Tudor Road, Hinckley, Hinckley and Bosworth, Leicestershire, England, LE10 0DZ, United Kingdom",ok
"28 TUDOR ROAD HINCKLEY, LE10 0EQ, United Kingdom",52.5513085,-1.37788,"Tudor Road, Hinckley, Hinckley and Bosworth, Leicestershire, England, LE10 0DZ, United Kingdom",ok
"40 TUDOR ROAD HINCKLEY, LE10 0EQ, United Kingdom",52.5513085,-1.37788,"Tudor Road, Hinckley, Hinckley and Bosworth, Leicestershire, England, LE10 0DZ, United Kingdom",ok
"5 ALEXANDER GARDENS HINCKLEY, LE10 0ER, United Kingdom",52.5500989,-1.3791757,"Alexander Gardens, Hinckley, Hinckley and Bosworth, Leicestershire, England, LE10 0ER, United Kingdom",ok
"24 BRAME ROAD HINCKLEY, LE10 0ET, United Kingdom",52.5482772,-1.3789674,"Brame Road, Hinckley, Hinckley and Bosworth, Leicestershire, England, LE10 0ET, United Kingdom",ok
"41 BRAME ROAD HINCKLEY, LE10 0ET, United Kingdom",52.5482772,-1.3789674,"Brame Road, Hinckley, Hinckley and Bosworth, Leicestershire, England, LE10 0ET, United Kingdom",ok
"17 FREDERICK AVENUE HINCKLEY, LE10 0EX, United Kingdom",52.5496012,-1.3893778,"Frederick Avenue, Hinckley, Hinckley and Bosworth, Leicestershire, England, LE10 0HA, United Kingdom",ok
"2 FREDERICK AVENUE HINCKLEY, LE10 0EX, United Kingdom",52.5496012,-1.3893778,"Frederick Avenue, Hinckley, Hinckley and Bosworth, Leicestershire, England, LE10 0HA, United Kingdom",ok
"7 GWENDOLINE AVENUE HINCKLEY, LE10 0EY, United Kingdom",52.5511591,-1.3895469,"LE10 7, Gwendoline Avenue, Wykin, Hinckley, Hinckley and Bosworth, Leicestershire, England, LE10 0EZ, United Kingdom",ok
"28 GWENDOLINE AVENUE HINCKLEY, LE10 0EZ, United Kingdom",52.5500596,-1.3909897,"Gwendoline Avenue, Wykin, Hinckley, Hinckley and Bosworth, Leicestershire, England, LE10 0EZ, United Kingdom",ok
"9 MERRY HURST PLACE HINCKLEY, LE10 0FG, United Kingdom",52.5333986,-1.4046303,"Merry Hurst Place, Hinckley, Hinckley and Bosworth, Leicestershire, England, LE10 0FG, United Kingdom",ok
"61 PADDOCK WAY HINCKLEY, LE10 0FJ, United Kingdom",52.5332857,-1.4033762,"Paddock Way, Hinckley, Hinckley and Bosworth, Leicestershire, England, LE10 0FJ, United Kingdom",ok
"62 PADDOCK WAY HINCKLEY, LE10 0FJ, United Kingdom",52.5332857,-1.4033762,"Paddock Way, Hinckley, Hinckley and Bosworth, Leicestershire, England, LE10 0FJ, United Kingdom",ok
"67 PADDOCK WAY HINCKLEY, LE10 0FJ, United Kingdom",52.5332857,-1.4033762,"Paddock Way, Hinckley, Hinckley and Bosworth, Leicestershire, England, LE10 0FJ, United Kingdom",ok
"35 APPLEBEES MEADOW HINCKLEY, LE10 0FL, United Kingdom",52.532311,-1.4046643,"Applebees Meadow, Hinckley, Hinckley and Bosworth, Leicestershire, England, LE10 0FL, United Kingdom",ok
"88 APPLEBEES MEADOW HINCKLEY, LE10 0FL, United Kingdom",52.532311,-1.4046643,"Applebees Meadow, Hinckley, Hinckley and Bosworth, Leicestershire, England, LE10 0FL, United Kingdom",ok
"27 BUNNEYS MEADOW HINCKLEY, LE10 0FQ, United Kingdom",52.5327274,-1.4037668,"Bunneys Meadow, Hinckley, Hinckley and Bosworth, Leicestershire, England, LE10 0FQ, United Kingdom",ok
"31 BUNNEYS MEADOW HINCKLEY, LE10 0FQ, United Kingdom",52.5327274,-1.4037668,"Bunneys Meadow, Hinckley, Hinckley and Bosworth, Leicestershire, England, LE10 0FQ, United Kingdom",ok
"5 BUNNEYS MEADOW HINCKLEY, LE10 0FQ, United Kingdom",52.5327274,-1.4037668,"Bunneys Meadow, Hinckley, Hinckley and Bosworth, Leicestershire, England, LE10 0FQ, United Kingdom",ok
"41 GREYHOUND CROFT HINCKLEY, LE10 0FX, United Kingdom",52.5316108,-1.3995479,"Greyhound Croft, Hinckley, Hinckley and Bosworth, Leicestershire, England, LE10 0QS, United Kingdom",ok
"1 BEAMS MEADOW HINCKLEY, LE10 0FY, United Kingdom",52.5319104,-1.4024108,"Beams Meadow, Hinckley, Hinckley and Bosworth, Leicestershire, England, LE10 0FY, United Kingdom",ok
"15 BEAMS MEADOW HINCKLEY, LE10 0FY, United Kingdom",52.5319104,-1.4024108,"Beams Meadow, Hinckley, Hinckley and Bosworth, Leicestershire, England, LE10 0FY, United Kingdom",ok
"25 LANDSEER DRIVE HINCKLEY, LE10 0GF, United Kingdom",52.5517233,-1.3890632,"Landseer Drive, Hinckley, Hinckley and Bosworth, Leicestershire, England, LE10 0GF, United Kingdom",ok
"55 LANDSEER DRIVE HINCKLEY, LE10 0GF, United Kingdom",52.5517233,-1.3890632,"Landseer Drive, Hinckley, Hinckley and Bosworth, Leicestershire, England, LE10 0GF, United Kingdom",ok
"16 MORLAND DRIVE HINCKLEY, LE10 0GG, United Kingdom",52.5529874,-1.388995,"Morland Drive, Hinckley, Hinckley and Bosworth, Leicestershire, England, LE10 0GG, United Kingdom",ok
"27 ARGUILE PLACE HINCKLEY, LE10 0GH, United Kingdom",52.5466387,-1.3778882,"Arguile Place, Hinckley, Hinckley and Bosworth, Leicestershire, England, LE10 0GH, United Kingdom",ok
"6 SISLEY WAY HINCKLEY, LE10 0GJ, United Kingdom",52.553182,-1.3902636,"Sisley Way, Hinckley, Hinckley and Bosworth, Leicestershire, England, LE10 0GJ, United Kingdom",ok
"9 TEAL DRIVE HINCKLEY, LE10 0GP, United Kingdom",52.5331072,-1.3932705,"Teal Drive, Hinckley, Hinckley and Bosworth, Leicestershire, England, LE10 0GP, United Kingdom",ok
"14 OVERLORD DRIVE HINCKLEY, LE10 0GW, United Kingdom",52.5487945,-1.3921224,"Overlord Drive, Wykin, Hinckley, Hinckley and Bosworth, Leicestershire, England, LE10 0GW, United Kingdom",ok
"28 OVERLORD DRIVE HINCKLEY, LE10 0GW, United Kingdom",52.5487945,-1.3921224,"Overlord Drive, Wykin, Hinckley, Hinckley and Bosworth, Leicestershire, England, LE10 0GW, United Kingdom",ok
"27 HENRY STREET HINCKLEY, LE10 0HA, United Kingdom",52.5494047,-1.3911752,"Henry Street, Wykin, Hinckley, Hinckley and Bosworth, Leicestershire, England, LE10 0EY, United Kingdom",ok
"29 HENRY STREET HINCKLEY, LE10 0HA, United Kingdom",52.5494047,-1.3911752,"Henry Street, Wykin, Hinckley, Hinckley and Bosworth, Leicestershire, England, LE10 0EY, United Kingdom",ok
"21 HOLLYCROFT CRESCENT HINCKLEY, LE10 0HH, United Kingdom",52.546404,-1.3794118,"Hollycroft Crescent, Hinckley, Hinckley and Bosworth, Leicestershire, England, LE10 0HH, United Kingdom",ok
"15 KING RICHARD ROAD HINCKLEY, LE10 0HJ, United Kingdom",52.5490057,-1.3797134,"King Richard Road, Hinckley, Hinckley and Bosworth, Leicestershire, England, LE10 0HL, United Kingdom",ok
"90 HOLLYCROFT HINCKLEY, LE10 0HQ, United Kingdom",52.5474124,-1.3808239,"Hollycroft, Hinckley, Hinckley and Bosworth, Leicestershire, England, LE10 0HQ, United Kingdom",ok
"109 STANLEY ROAD HINCKLEY, LE10 0HR, United Kingdom",52.5483047,-1.3764242,"Stanley Road, Hinckley, Hinckley and Bosworth, Leicestershire, England, LE10 0HT, United Kingdom",ok
"129 STANLEY ROAD HINCKLEY, LE10 0HR, United Kingdom",52.5483047,-1.3764242,"Stanley Road, Hinckley, Hinckley and Bosworth, Leicestershire, England, LE10 0HT, United Kingdom",ok
"153 STANLEY ROAD HINCKLEY, LE10 0HR, United Kingdom",52.5483047,-1.3764242,"Stanley Road, Hinckley, Hinckley and Bosworth, Leicestershire, England, LE10 0HT, United Kingdom",ok
"99 STANLEY ROAD HINCKLEY, LE10 0HR, United Kingdom",52.5483047,-1.3764242,"Stanley Road, Hinckley, Hinckley and Bosworth, Leicestershire, England, LE10 0HT, United Kingdom",ok
"5 WYKIN ROAD HINCKLEY, LE10 0HU, United Kingdom",52.5510598,-1.3880511,"Wykin Road, Wykin, Hinckley, Hinckley and Bosworth, Leicestershire, England, LE10 0GF, United Kingdom",ok
"WHITE HOUSE SANDY WALK HINCKLEY, LE10 0HW, United Kingdom",,,,no_result
"10 WYKIN ROAD HINCKLEY, LE10 0HY, United Kingdom",52.5510598,-1.3880511,"Wykin Road, Wykin, Hinckley, Hinckley and Bosworth, Leicestershire, England, LE10 0GF, United Kingdom",ok
"18 GAINSBOROUGH AVENUE HINCKLEY, LE10 0JB, United Kingdom",52.5534877,-1.391846,"Gainsborough Avenue, Wykin, Hinckley, Hinckley and Bosworth, Leicestershire, England, LE10 0JB, United Kingdom",ok
"28 GAINSBOROUGH AVENUE HINCKLEY, LE10 0JB, United Kingdom",52.5534877,-1.391846,"Gainsborough Avenue, Wykin, Hinckley, Hinckley and Bosworth, Leicestershire, England, LE10 0JB, United Kingdom",ok
"27 GRANVILLE GARDENS HINCKLEY, LE10 0JD, United Kingdom",52.5380437,-1.3810511,"Granville Gardens, Hinckley, Hinckley and Bosworth, Leicestershire, England, LE10 0JD, United Kingdom",ok
"44 GRANVILLE GARDENS HINCKLEY, LE10 0JD, United Kingdom",52.5380437,-1.3810511,"Granville Gardens, Hinckley, Hinckley and Bosworth, Leicestershire, England, LE10 0JD, United Kingdom",ok
"47 GRANVILLE GARDENS HINCKLEY, LE10 0JD, United Kingdom",52.5380437,-1.3810511,"Granville Gardens, Hinckley, Hinckley and Bosworth, Leicestershire, England, LE10 0JD, United Kingdom",ok
"58 GRANVILLE GARDENS HINCKLEY, LE10 0JD, United Kingdom",52.5380437,-1.3810511,"Granville Gardens, Hinckley, Hinckley and Bosworth, Leicestershire, England, LE10 0JD, United Kingdom",ok
"13 HOGARTH DRIVE HINCKLEY, LE10 0JG, United Kingdom",52.5535567,-1.3924744,"Hogarth Drive, Wykin, Hinckley, Hinckley and Bosworth, Leicestershire, England, LE10 0JG, United Kingdom",ok
"4 ASHFORD ROAD HINCKLEY, LE10 0JL, United Kingdom",52.5368713,-1.3852947,"Ashford Road, Hinckley, Hinckley and Bosworth, Leicestershire, England, LE10 0JU, United Kingdom",ok
"12 BEAUMONT AVENUE HINCKLEY, LE10 0JN, United Kingdom",52.5346041,-1.3906202,"Beaumont Avenue, Hinckley, Hinckley and Bosworth, Leicestershire, England, LE10 0JN, United Kingdom",ok
"13 BEAUMONT AVENUE HINCKLEY, LE10 0JN, United Kingdom",52.5346041,-1.3906202,"Beaumont Avenue, Hinckley, Hinckley and Bosworth, Leicestershire, England, LE10 0JN, United Kingdom",ok
"100 COVENTRY ROAD HINCKLEY, LE10 0JT, United Kingdom",52.5399296,-1.3765195,"Coventry Road, Hinckley, Hinckley and Bosworth, Leicestershire, England, LE10 0JZ, United Kingdom",ok
"110 COVENTRY ROAD HINCKLEY, LE10 0JT, United Kingdom",52.5399296,-1.3765195,"Coventry Road, Hinckley, Hinckley and Bosworth, Leicestershire, England, LE10 0JZ, United Kingdom",ok
"21 BRANDON ROAD HINCKLEY, LE10 0JW, United Kingdom",52.5375618,-1.3825609,"Brandon Road, Hinckley, Hinckley and Bosworth, Leicestershire, England, LE10 0JW, United Kingdom",ok
"23 BRANDON ROAD HINCKLEY, LE10 0JW, United Kingdom",52.5375618,-1.3825609,"Brandon Road, Hinckley, Hinckley and Bosworth, Leicestershire, England, LE10 0JW, United Kingdom",ok
"7 BRANDON ROAD HINCKLEY, LE10 0JW, United Kingdom",52.5375618,-1.3825609,"Brandon Road, Hinckley, Hinckley and Bosworth, Leicestershire, England, LE10 0JW, United Kingdom",ok
"19 KING GEORGES WAY HINCKLEY, LE10 0LE, United Kingdom",,,,no_result
"47 KING GEORGES WAY HINCKLEY, LE10 0LE, United Kingdom",,,,no_result
"9 NORTHFIELD ROAD HINCKLEY, LE10 0LH, United Kingdom",52.5362438,-1.3820128,"Northfield Road, Hinckley, Hinckley and Bosworth, Leicestershire, England, LE10 0LJ, United Kingdom",ok
"16 NORTHFIELD ROAD HINCKLEY, LE10 0LJ, United Kingdom",52.5362438,-1.3820128,"Northfield Road, Hinckley, Hinckley and Bosworth, Leicestershire, England, LE10 0LJ, United Kingdom",ok
"74 NORTHFIELD ROAD HINCKLEY, LE10 0LJ, United Kingdom",52.5362438,-1.3820128,"Northfield Road, Hinckley, Hinckley and Bosworth, Leicestershire, England, LE10 0LJ, United Kingdom",ok
"76 NORTHFIELD ROAD HINCKLEY, LE10 0LJ, United Kingdom",52.5362438,-1.3820128,"Northfield Road, Hinckley, Hinckley and Bosworth, Leicestershire, England, LE10 0LJ, United Kingdom",ok
"6 OBAN ROAD HINCKLEY, LE10 0LL, United Kingdom",52.5347809,-1.394004,"6,8, Oban Road, Hinckley, Hinckley and Bosworth, Leicestershire, England, LE10 0LL, United Kingdom",ok
"6 ROSEMARY WAY HINCKLEY, LE10 0LN, United Kingdom",52.5370396,-1.3842571,"Rosemary Way, Hinckley, Hinckley and Bosworth, Leicestershire, England, LE10 0LN, United Kingdom",ok
"30 STRATHMORE ROAD HINCKLEY, LE10 0LR, United Kingdom",52.5339733,-1.3917247,"Strathmore Road, Hinckley, Hinckley and Bosworth, Leicestershire, England, LE10 0LR, United Kingdom",ok
"60 STRATHMORE ROAD HINCKLEY, LE10 0LR, United Kingdom",52.5339733,-1.3917247,"Strathmore Road, Hinckley, Hinckley and Bosworth, Leicestershire, England, LE10 0LR, United Kingdom",ok
"142 STRATHMORE ROAD HINCKLEY, LE10 0LS, United Kingdom",52.5339733,-1.3917247,"Strathmore Road, Hinckley, Hinckley and Bosworth, Leicestershire, England, LE10 0LR, United Kingdom",ok
"170 STRATHMORE ROAD HINCKLEY, LE10 0LS, United Kingdom",52.5339733,-1.3917247,"Strathmore Road, Hinckley, Hinckley and Bosworth, Leicestershire, England, LE10 0LR, United Kingdom",ok
"72 WESTFIELD ROAD HINCKLEY, LE10 0LU, United Kingdom",52.5343125,-1.384624,"Westfield Road, Hinckley, Hinckley and Bosworth, Leicestershire, England, LE10 0LU, United Kingdom",ok
"15 STRATHMORE ROAD HINCKLEY, LE10 0LW, United Kingdom",52.5339733,-1.3917247,"Strathmore Road, Hinckley, Hinckley and Bosworth, Leicestershire, England, LE10 0LR, United Kingdom",ok
"23 STRATHMORE ROAD HINCKLEY, LE10 0LW, United Kingdom",52.5339733,-1.3917247,"Strathmore Road, Hinckley, Hinckley and Bosworth, Leicestershire, England, LE10 0LR, United Kingdom",ok
"37 STRATHMORE ROAD HINCKLEY, LE10 0LW, United Kingdom",52.5339733,-1.3917247,"Strathmore Road, Hinckley, Hinckley and Bosworth, Leicestershire, England, LE10 0LR, United Kingdom",ok
"59 WILLIAM ILIFFE STREET HINCKLEY, LE10 0LX, United Kingdom",52.5349029,-1.389248,"William Iliffe Street, Hinckley, Hinckley and Bosworth, Leicestershire, England, LE10 0LX, United Kingdom",ok
"303 COVENTRY ROAD HINCKLEY, LE10 0NE, United Kingdom",52.5367387,-1.388179,"Coventry Road, Hinckley, Hinckley and Bosworth, Leicestershire, England, LE10 0ND, United Kingdom",ok
"311 COVENTRY ROAD HINCKLEY, LE10 0NE, United Kingdom",52.5367387,-1.388179,"Coventry Road, Hinckley, Hinckley and Bosworth, Leicestershire, England, LE10 0ND, United Kingdom",ok
"315 COVENTRY ROAD HINCKLEY, LE10 0NE, United Kingdom",52.5367387,-1.388179,"Coventry Road, Hinckley, Hinckley and Bosworth, Leicestershire, England, LE10 0ND, United Kingdom",ok
"407 COVENTRY ROAD HINCKLEY, LE10 0NF, United Kingdom",52.5357417,-1.4001076,"Coventry Road, Hinckley, Hinckley and Bosworth, Leicestershire, England, LE10 0NB, United Kingdom",ok
"180 COVENTRY ROAD HINCKLEY, LE10 0NG, United Kingdom",52.5367387,-1.388179,"Coventry Road, Hinckley, Hinckley and Bosworth, Leicestershire, England, LE10 0ND, United Kingdom",ok
"464 COVENTRY ROAD HINCKLEY, LE10 0NH, United Kingdom",52.5357417,-1.4001076,"Coventry Road, Hinckley, Hinckley and Bosworth, Leicestershire, England, LE10 0NB, United Kingdom",ok
"10 HADRIAN CLOSE HINCKLEY, LE10 0NL, United Kingdom",52.5456313,-1.3970794,"Hadrian Close, Hinckley, Hinckley and Bosworth, Leicestershire, England, LE10 0NL, United Kingdom",ok
"8 ESKDALE ROAD HINCKLEY, LE10 0NP, United Kingdom",52.5369559,-1.3949893,"Eskdale Road, Hinckley, Hinckley and Bosworth, Leicestershire, England, LE10 0NW, United Kingdom",ok
"276 COVENTRY ROAD HINCKLEY, LE10 0NQ, United Kingdom",52.5357417,-1.4001076,"Coventry Road, Hinckley, Hinckley and Bosworth, Leicestershire, England, LE10 0NB, United Kingdom",ok
"11 LANGDALE ROAD HINCKLEY, LE10 0NR, United Kingdom",52.5388041,-1.3957648,"Langdale Road, Hinckley, Hinckley and Bosworth, Leicestershire, England, LE10 0NR, United Kingdom",ok
"24 LANGDALE ROAD HINCKLEY, LE10 0NS, United Kingdom",52.5388041,-1.3957648,"Langdale Road, Hinckley, Hinckley and Bosworth, Leicestershire, England, LE10 0NR, United Kingdom",ok
"4 LANGDALE ROAD HINCKLEY, LE10 0NS, United Kingdom",52.5388041,-1.3957648,"Langdale Road, Hinckley, Hinckley and Bosworth, Leicestershire, England, LE10 0NR, United Kingdom",ok
"46 LANGDALE ROAD HINCKLEY, LE10 0NS, United Kingdom",52.5388041,-1.3957648,"Langdale Road, Hinckley, Hinckley and Bosworth, Leicestershire, England, LE10 0NR, United Kingdom",ok
"31 ESKDALE ROAD HINCKLEY, LE10 0NW, United Kingdom",52.5369559,-1.3949893,"Eskdale Road, Hinckley, Hinckley and Bosworth, Leicestershire, England, LE10 0NW, United Kingdom",ok
"29 WINDRUSH DRIVE HINCKLEY, LE10 0NY, United Kingdom",52.5367774,-1.3917353,"Windrush Drive, Hinckley, Hinckley and Bosworth, Leicestershire, England, LE10 0PH, United Kingdom",ok
"6 WINDRUSH DRIVE HINCKLEY, LE10 0NY, United Kingdom",52.5367774,-1.3917353,"Windrush Drive, Hinckley, Hinckley and Bosworth, Leicestershire, England, LE10 0PH, United Kingdom",ok
"83 WINDRUSH DRIVE HINCKLEY, LE10 0NY, United Kingdom",52.5367774,-1.3917353,"Windrush Drive, Hinckley, Hinckley and Bosworth, Leicestershire, England, LE10 0PH, United Kingdom",ok
"10 SUNNYDALE ROAD HINCKLEY, LE10 0PB, United Kingdom",52.5368259,-1.3971403,"Sunnydale Road, Hinckley, Hinckley and Bosworth, Leicestershire, England, LE10 0PB, United Kingdom",ok
"20 SUNNYDALE ROAD HINCKLEY, LE10 0PB, United Kingdom",52.5368259,-1.3971403,"Sunnydale Road, Hinckley, Hinckley and Bosworth, Leicestershire, England, LE10 0PB, United Kingdom",ok
"19 THIRLMERE ROAD HINCKLEY, LE10 0PE, United Kingdom",52.5373263,-1.3936813,"Thirlmere Road, Hinckley, Hinckley and Bosworth, Leicestershire, England, LE10 0PF, United Kingdom",ok
"21 THIRLMERE ROAD HINCKLEY, LE10 0PE, United Kingdom",52.5373263,-1.3936813,"Thirlmere Road, Hinckley, Hinckley and Bosworth, Leicestershire, England, LE10 0PF, United Kingdom",ok
"59 CLARENDON ROAD HINCKLEY, LE10 0PJ, United Kingdom",52.5374733,-1.3756119,"Clarendon Road, Hinckley, Hinckley and Bosworth, Leicestershire, England, LE10 0PJ, United Kingdom",ok
"104 CLARENDON ROAD HINCKLEY, LE10 0PL, United Kingdom",52.5374733,-1.3756119,"Clarendon Road, Hinckley, Hinckley and Bosworth, Leicestershire, England, LE10 0PJ, United Kingdom",ok
"56 CLARENDON ROAD HINCKLEY, LE10 0PL, United Kingdom",52.5374733,-1.3756119,"Clarendon Road, Hinckley, Hinckley and Bosworth, Leicestershire, England, LE10 0PJ, United Kingdom",ok
"68 CLARENDON ROAD HINCKLEY, LE10 0PL, United Kingdom",52.5374733,-1.3756119,"Clarendon Road, Hinckley, Hinckley and Bosworth, Leicestershire, England, LE10 0PJ, United Kingdom",ok
"7 HARRIS PLACE HINCKLEY, LE10 0PS, United Kingdom",52.5460696,-1.3734291,"Harris Place, Hinckley, Hinckley and Bosworth, Leicestershire, England, LE10 0DW, United Kingdom",ok
"18 GRANBY ROAD HINCKLEY, LE10 0PW, United Kingdom",52.5369545,-1.3792483,"Granby Road, Hinckley, Hinckley and Bosworth, Leicestershire, England, LE10 0PW, United Kingdom",ok
"3 GRANBY ROAD HINCKLEY, LE10 0PW, United Kingdom",52.5369545,-1.3792483,"Granby Road, Hinckley, Hinckley and Bosworth, Leicestershire, England, LE10 0PW, United Kingdom",ok
"53 MEREVALE AVENUE HINCKLEY, LE10 0PX, United Kingdom",52.5369735,-1.3809461,"Merevale Avenue, Hinckley, Hinckley and Bosworth, Leicestershire, England, LE10 0PZ, United Kingdom",ok
"55 MEREVALE AVENUE HINCKLEY, LE10 0PX, United Kingdom",52.5369735,-1.3809461,"Merevale Avenue, Hinckley, Hinckley and Bosworth, Leicestershire, England, LE10 0PZ, United Kingdom",ok
"66 MEREVALE AVENUE HINCKLEY, LE10 0PY, United Kingdom",52.5369735,-1.3809461,"Merevale Avenue, Hinckley, Hinckley and Bosworth, Leicestershire, England, LE10 0PZ, United Kingdom",ok
"34 RUGBY ROAD HINCKLEY, LE10 0QD, United Kingdom",52.5391693,-1.375903,"Rugby Road, The Crescent, Hinckley, Hinckley and Bosworth, Leicestershire, England, LE10 0QJ, United Kingdom",ok
"76 RUGBY ROAD HINCKLEY, LE10 0QD, United Kingdom",52.5391693,-1.375903,"Rugby Road, The Crescent, Hinckley, Hinckley and Bosworth, Leicestershire, England, LE10 0QJ, United Kingdom",ok
"11 RUTLAND AVENUE HINCKLEY, LE10 0QH, United Kingdom",52.5359153,-1.3783762,"Rutland Avenue, Hinckley, Hinckley and Bosworth, Leicestershire, England, LE10 0QH, United Kingdom",ok
"43 WESTFIELD ROAD HINCKLEY, LE10 0QN, United Kingdom",52.5351815,-1.37848,"Westfield Road, Hinckley, Hinckley and Bosworth, Leicestershire, England, LE10 0QN, United Kingdom",ok
"88 GREYHOUND CROFT HINCKLEY, LE10 0QS, United Kingdom",52.5316108,-1.3995479,"Greyhound Croft, Hinckley, Hinckley and Bosworth, Leicestershire, England, LE10 0QS, United Kingdom",ok
"20 MIDDLEFIELD COURT HINCKLEY, LE10 0QT, United Kingdom",52.5483735,-1.3705165,"Middlefield Court, Hinckley, Hinckley and Bosworth, Leicestershire, England, LE10 0QT, United Kingdom",ok
"9 MIDDLEFIELD COURT HINCKLEY, LE10 0QT, United Kingdom",52.5483735,-1.3705165,"Middlefield Court, Hinckley, Hinckley and Bosworth, Leicestershire, England, LE10 0QT, United Kingdom",ok
"36 WESTFIELD ROAD HINCKLEY, LE10 0QW, United Kingdom",52.5351815,-1.37848,"Westfield Road, Hinckley, Hinckley and Bosworth, Leicestershire, England, LE10 0QN, United Kingdom",ok
"6 WESTFIELD ROAD HINCKLEY, LE10 0QW, United Kingdom",52.5351815,-1.37848,"Westfield Road, Hinckley, Hinckley and Bosworth, Leicestershire, England, LE10 0QN, United Kingdom",ok
"78 BARRIE ROAD HINCKLEY, LE10 0QX, United Kingdom",52.5523341,-1.3694405,"Barrie Road, Hinckley, Hinckley and Bosworth, Leicestershire, England, LE10 0QX, United Kingdom",ok
"18 ELIZABETH ROAD HINCKLEY, LE10 0QY, United Kingdom",52.5510733,-1.3694489,"Elizabeth Road, Hinckley, Hinckley and Bosworth, Leicestershire, England, LE10 0QY, United Kingdom",ok
"23 ELIZABETH ROAD HINCKLEY, LE10 0QY, United Kingdom",52.5510733,-1.3694489,"Elizabeth Road, Hinckley, Hinckley and Bosworth, Leicestershire, England, LE10 0QY, United Kingdom",ok
"24 ELIZABETH ROAD HINCKLEY, LE10 0QY, United Kingdom",52.5510733,-1.3694489,"Elizabeth Road, Hinckley, Hinckley and Bosworth, Leicestershire, England, LE10 0QY, United Kingdom",ok
"101 MIDDLEFIELD LANE HINCKLEY, LE10 0RA, United Kingdom",52.5537667,-1.3731193,"Middlefield Lane, Hinckley, Hinckley and Bosworth, Leicestershire, England, LE10 0RA, United Kingdom",ok
